--- 
- xml_url: http://weather.gov/xml/current_obs/TAPA.xml
  name: Vc Bird Intl Airport Antigua
  latitude: 17.117
  id: TAPA
  longitude: -61.783
  state: AG
- xml_url: http://weather.gov/xml/current_obs/TKPN.xml
  name: Charlestown/Newcast
  latitude: 17.2
  id: TKPN
  longitude: -62.583
  state: AG
- xml_url: http://weather.gov/xml/current_obs/TRPM.xml
  name: Blackburne/Plymouth
  latitude: 16.75
  id: TRPM
  longitude: -62.167
  state: AG
- xml_url: http://weather.gov/xml/current_obs/PAAK.xml
  name: Atka Airport
  latitude: 52.217
  id: PAAK
  longitude: -174.2
  state: AK
- xml_url: http://weather.gov/xml/current_obs/PAAP.xml
  name: Port Alexander
  latitude: 56.26
  id: PAAP
  longitude: -134.66
  state: AK
- xml_url: http://weather.gov/xml/current_obs/PAAQ.xml
  name: Palmer
  latitude: 61.61
  id: PAAQ
  longitude: -149.09
  state: AK
- xml_url: http://weather.gov/xml/current_obs/PABA.xml
  name: Barter Island
  latitude: 70.14
  id: PABA
  longitude: -143.59
  state: AK
- xml_url: http://weather.gov/xml/current_obs/PABE.xml
  name: Bethel
  latitude: 60.78
  id: PABE
  longitude: -161.8
  state: AK
- xml_url: http://weather.gov/xml/current_obs/PABI.xml
  name: Delta Junction/Allan AAF
  latitude: 63.97
  id: PABI
  longitude: -145.7
  state: AK
- xml_url: http://weather.gov/xml/current_obs/PABL.xml
  name: Buckland Airport
  latitude: 65.99
  id: PABL
  longitude: -161.12
  state: AK
- xml_url: http://weather.gov/xml/current_obs/PABN.xml
  name: Nabesna / Devil Mountain
  latitude: 62.41
  id: PABN
  longitude: -143.0
  state: AK
- xml_url: http://weather.gov/xml/current_obs/PABR.xml
  name: Barrow/Wiley Post
  latitude: 71.29
  id: PABR
  longitude: -156.77
  state: AK
- xml_url: http://weather.gov/xml/current_obs/PABT.xml
  name: Bettles Airport
  latitude: 66.92
  id: PABT
  longitude: -151.52
  state: AK
- xml_url: http://weather.gov/xml/current_obs/PABV.xml
  name: Birchwood
  latitude: 61.42
  id: PABV
  longitude: -149.52
  state: AK
- xml_url: http://weather.gov/xml/current_obs/PACD.xml
  name: Cold Bay Airport
  latitude: 55.21
  id: PACD
  longitude: -162.72
  state: AK
- xml_url: http://weather.gov/xml/current_obs/PACV.xml
  name: Cordova/Merle K
  latitude: 60.5
  id: PACV
  longitude: -145.5
  state: AK
- xml_url: http://weather.gov/xml/current_obs/PACZ.xml
  name: Cape Romanzoff Airways Facilities Sector
  latitude: 61.783
  id: PACZ
  longitude: -166.033
  state: AK
- xml_url: http://weather.gov/xml/current_obs/PADE.xml
  name: Deering Airport
  latitude: 66.08
  id: PADE
  longitude: -162.75
  state: AK
- xml_url: http://weather.gov/xml/current_obs/PADK.xml
  name: Adak Is. NAF
  latitude: 51.89
  id: PADK
  longitude: -176.65
  state: AK
- xml_url: http://weather.gov/xml/current_obs/PADL.xml
  name: Dillingham Municipal
  latitude: 59.05
  id: PADL
  longitude: -158.52
  state: AK
- xml_url: http://weather.gov/xml/current_obs/PADQ.xml
  name: Kodiak
  latitude: 57.76
  id: PADQ
  longitude: -152.5
  state: AK
- xml_url: http://weather.gov/xml/current_obs/PADT.xml
  name: Slana Airport
  latitude: 62.71
  id: PADT
  longitude: -143.99
  state: AK
- xml_url: http://weather.gov/xml/current_obs/PADU.xml
  name: Unalaska
  latitude: 53.89
  id: PADU
  longitude: -166.53
  state: AK
- xml_url: http://weather.gov/xml/current_obs/PAEC.xml
  name: Chulitna
  latitude: 62.89
  id: PAEC
  longitude: -149.84
  state: AK
- xml_url: http://weather.gov/xml/current_obs/PAED.xml
  name: Anchorage / Elmendorf Air Force Base
  latitude: 61.25
  id: PAED
  longitude: -149.8
  state: AK
- xml_url: http://weather.gov/xml/current_obs/PAEG.xml
  name: Eagle Airport
  latitude: 64.78
  id: PAEG
  longitude: -141.15
  state: AK
- xml_url: http://weather.gov/xml/current_obs/PAEH.xml
  name: Cape Newenham Airways Facilities Sector
  latitude: 58.66
  id: PAEH
  longitude: -162.07
  state: AK
- xml_url: http://weather.gov/xml/current_obs/PAEI.xml
  name: Fairbanks / Eielson Air Force Base
  latitude: 64.65
  id: PAEI
  longitude: -147.067
  state: AK
- xml_url: http://weather.gov/xml/current_obs/PAEL.xml
  name: Elfin Cove Seaplane
  latitude: 58.21
  id: PAEL
  longitude: -136.35
  state: AK
- xml_url: http://weather.gov/xml/current_obs/PAEM.xml
  name: Emmonak
  latitude: 62.77
  id: PAEM
  longitude: -164.5
  state: AK
- xml_url: http://weather.gov/xml/current_obs/PAEN.xml
  name: Kenai Municipal Airport
  latitude: 60.58
  id: PAEN
  longitude: -151.25
  state: AK
- xml_url: http://weather.gov/xml/current_obs/PAER.xml
  name: Merrill Pass West
  latitude: 61.25
  id: PAER
  longitude: -153.817
  state: AK
- xml_url: http://weather.gov/xml/current_obs/PAFA.xml
  name: Fairbanks International Airport
  latitude: 64.82
  id: PAFA
  longitude: -147.87
  state: AK
- xml_url: http://weather.gov/xml/current_obs/PAFB.xml
  name: Wainwright U. S. Army Airfield
  latitude: 64.833
  id: PAFB
  longitude: -147.617
  state: AK
- xml_url: http://weather.gov/xml/current_obs/PAFE.xml
  name: Kake Airport
  latitude: 56.97
  id: PAFE
  longitude: -133.95
  state: AK
- xml_url: http://weather.gov/xml/current_obs/PAFK.xml
  name: Farewell Lake Seaplane Base
  latitude: 62.54
  id: PAFK
  longitude: -153.62
  state: AK
- xml_url: http://weather.gov/xml/current_obs/PAFM.xml
  name: Ambler
  latitude: 67.1
  id: PAFM
  longitude: -157.85
  state: AK
- xml_url: http://weather.gov/xml/current_obs/PAGA.xml
  name: Galena A.
  latitude: 64.74
  id: PAGA
  longitude: -156.94
  state: AK
- xml_url: http://weather.gov/xml/current_obs/PAGB.xml
  name: Galbraith Lake
  latitude: 68.49
  id: PAGB
  longitude: -149.49
  state: AK
- xml_url: http://weather.gov/xml/current_obs/PAGK.xml
  name: Gulkana Airport
  latitude: 62.15
  id: PAGK
  longitude: -145.45
  state: AK
- xml_url: http://weather.gov/xml/current_obs/PAGL.xml
  name: Golovin Airport
  latitude: 64.54
  id: PAGL
  longitude: -163.04
  state: AK
- xml_url: http://weather.gov/xml/current_obs/PAGM.xml
  name: Gambell Airport
  latitude: 63.77
  id: PAGM
  longitude: -171.74
  state: AK
- xml_url: http://weather.gov/xml/current_obs/PAGS.xml
  name: Gustavus
  latitude: 58.42
  id: PAGS
  longitude: -135.73
  state: AK
- xml_url: http://weather.gov/xml/current_obs/PAGY.xml
  name: Skagway
  latitude: 59.48
  id: PAGY
  longitude: -135.32
  state: AK
- xml_url: http://weather.gov/xml/current_obs/PAHN.xml
  name: Haines Airport
  latitude: 59.25
  id: PAHN
  longitude: -135.52
  state: AK
- xml_url: http://weather.gov/xml/current_obs/PAHO.xml
  name: Homer
  latitude: 59.64
  id: PAHO
  longitude: -151.5
  state: AK
- xml_url: http://weather.gov/xml/current_obs/PAHP.xml
  name: Hooper Bay Automatic Weather Observing / Reporting
  latitude: 61.54
  id: PAHP
  longitude: -166.16
  state: AK
- xml_url: http://weather.gov/xml/current_obs/PAHS.xml
  name: Huslia
  latitude: 65.7
  id: PAHS
  longitude: -156.39
  state: AK
- xml_url: http://weather.gov/xml/current_obs/PAHV.xml
  name: Healy River Airport
  latitude: 63.89
  id: PAHV
  longitude: -149.02
  state: AK
- xml_url: http://weather.gov/xml/current_obs/PAHY.xml
  name: Hydaburg Seaplane Base
  latitude: 55.21
  id: PAHY
  longitude: -132.84
  state: AK
- xml_url: http://weather.gov/xml/current_obs/PAHZ.xml
  name: Hayes River
  latitude: 61.99
  id: PAHZ
  longitude: -152.09
  state: AK
- xml_url: http://weather.gov/xml/current_obs/PAII.xml
  name: Egegik Automatic Weather Observing / Reporting Sys
  latitude: 58.42
  id: PAII
  longitude: -157.37
  state: AK
- xml_url: http://weather.gov/xml/current_obs/PAIL.xml
  name: Iliamna / Iliamna Airport
  latitude: 59.76
  id: PAIL
  longitude: -154.92
  state: AK
- xml_url: http://weather.gov/xml/current_obs/PAIM.xml
  name: Indian Mountain Airways Facilities Sector
  latitude: 66.0
  id: PAIM
  longitude: -153.7
  state: AK
- xml_url: http://weather.gov/xml/current_obs/PAIN.xml
  name: McKinley National Park Airport
  latitude: 63.73
  id: PAIN
  longitude: -148.92
  state: AK
- xml_url: http://weather.gov/xml/current_obs/PAJC.xml
  name: Chignik Airport
  latitude: 56.31
  id: PAJC
  longitude: -158.37
  state: AK
- xml_url: http://weather.gov/xml/current_obs/PAJN.xml
  name: Juneau International Airport
  latitude: 58.38
  id: PAJN
  longitude: -134.58
  state: AK
- xml_url: http://weather.gov/xml/current_obs/PAJV.xml
  name: Sutton
  latitude: 61.72
  id: PAJV
  longitude: -148.89
  state: AK
- xml_url: http://weather.gov/xml/current_obs/PAKK.xml
  name: Koyuk Airport
  latitude: 64.93
  id: PAKK
  longitude: -165.15
  state: AK
- xml_url: http://weather.gov/xml/current_obs/PAKN.xml
  name: King Salmon Airport
  latitude: 58.68
  id: PAKN
  longitude: -156.65
  state: AK
- xml_url: http://weather.gov/xml/current_obs/PAKP.xml
  name: Anaktuvuk Pass
  latitude: 68.13
  id: PAKP
  longitude: -151.73
  state: AK
- xml_url: http://weather.gov/xml/current_obs/PAKT.xml
  name: Ketchikan International Airport
  latitude: 55.35
  id: PAKT
  longitude: -131.7
  state: AK
- xml_url: http://weather.gov/xml/current_obs/PAKU.xml
  name: Kuparuk Airport
  latitude: 70.317
  id: PAKU
  longitude: -149.583
  state: AK
- xml_url: http://weather.gov/xml/current_obs/PAKV.xml
  name: Kaltag Airport
  latitude: 64.33
  id: PAKV
  longitude: -158.75
  state: AK
- xml_url: http://weather.gov/xml/current_obs/PAKW.xml
  name: Klawock Airport
  latitude: 55.59
  id: PAKW
  longitude: -133.09
  state: AK
- xml_url: http://weather.gov/xml/current_obs/PALH.xml
  name: Lake Hood Seaplane
  latitude: 61.19
  id: PALH
  longitude: -149.97
  state: AK
- xml_url: http://weather.gov/xml/current_obs/PALJ.xml
  name: Port Alsworth
  latitude: 60.21
  id: PALJ
  longitude: -154.31
  state: AK
- xml_url: http://weather.gov/xml/current_obs/PALK.xml
  name: Snowshoe Lake
  latitude: 62.03
  id: PALK
  longitude: -146.68
  state: AK
- xml_url: http://weather.gov/xml/current_obs/PALR.xml
  name: Chandalar Lake
  latitude: 67.5
  id: PALR
  longitude: -148.49
  state: AK
- xml_url: http://weather.gov/xml/current_obs/PALU.xml
  name: Cape Lisburne Airways Fac Sec
  latitude: 68.89
  id: PALU
  longitude: -166.14
  state: AK
- xml_url: http://weather.gov/xml/current_obs/PALV.xml
  name: Big River Lake
  latitude: 60.82
  id: PALV
  longitude: -152.31
  state: AK
- xml_url: http://weather.gov/xml/current_obs/PAMC.xml
  name: McGrath Airport
  latitude: 62.95
  id: PAMC
  longitude: -155.61
  state: AK
- xml_url: http://weather.gov/xml/current_obs/PAMD.xml
  name: Middleton Island, Ak
  latitude: 59.44
  id: PAMD
  longitude: -146.33
  state: AK
- xml_url: http://weather.gov/xml/current_obs/PAMH.xml
  name: Minchumina
  latitude: 63.91
  id: PAMH
  longitude: -152.16
  state: AK
- xml_url: http://weather.gov/xml/current_obs/PAML.xml
  name: Manley Hot Springs
  latitude: 65.0
  id: PAML
  longitude: -150.65
  state: AK
- xml_url: http://weather.gov/xml/current_obs/PAMM.xml
  name: Metlakatla Seaplane Base
  latitude: 55.08
  id: PAMM
  longitude: -131.35
  state: AK
- xml_url: http://weather.gov/xml/current_obs/PAMR.xml
  name: Merrill Field
  latitude: 61.214
  id: PAMR
  longitude: -149.846
  state: AK
- xml_url: http://weather.gov/xml/current_obs/PAMX.xml
  name: McCarthy
  latitude: 61.44
  id: PAMX
  longitude: -142.94
  state: AK
- xml_url: http://weather.gov/xml/current_obs/PAMY.xml
  name: Mekoryuk
  latitude: 60.37
  id: PAMY
  longitude: -166.27
  state: AK
- xml_url: http://weather.gov/xml/current_obs/PANC.xml
  name: Anchorage International Airport
  latitude: 61.17
  id: PANC
  longitude: -150.0
  state: AK
- xml_url: http://weather.gov/xml/current_obs/PANI.xml
  name: Aniak
  latitude: 61.58
  id: PANI
  longitude: -159.53
  state: AK
- xml_url: http://weather.gov/xml/current_obs/PANN.xml
  name: Nenana Municipal Airport
  latitude: 64.5473
  id: PANN
  longitude: -149.074
  state: AK
- xml_url: http://weather.gov/xml/current_obs/PANT.xml
  name: Annette Island
  latitude: 55.04
  id: PANT
  longitude: -131.57
  state: AK
- xml_url: http://weather.gov/xml/current_obs/PANV.xml
  name: Annik Airport
  latitude: 62.65
  id: PANV
  longitude: -160.18
  state: AK
- xml_url: http://weather.gov/xml/current_obs/PAOH.xml
  name: Hoonah Seaplane
  latitude: 58.12
  id: PAOH
  longitude: -135.45
  state: AK
- xml_url: http://weather.gov/xml/current_obs/PAOM.xml
  name: Nome Airport
  latitude: 64.5
  id: PAOM
  longitude: -165.44
  state: AK
- xml_url: http://weather.gov/xml/current_obs/PAOR.xml
  name: Northway Airport
  latitude: 62.97
  id: PAOR
  longitude: -141.94
  state: AK
- xml_url: http://weather.gov/xml/current_obs/PAOT.xml
  name: Kotzebue, Wien Memorial Airport
  latitude: 66.87
  id: PAOT
  longitude: -162.64
  state: AK
- xml_url: http://weather.gov/xml/current_obs/PAPB.xml
  name: St. George Airport
  latitude: 56.35
  id: PAPB
  longitude: -169.4
  state: AK
- xml_url: http://weather.gov/xml/current_obs/PAPG.xml
  name: Petersburg
  latitude: 56.82
  id: PAPG
  longitude: -132.97
  state: AK
- xml_url: http://weather.gov/xml/current_obs/PAPH.xml
  name: Port Heiden
  latitude: 56.96
  id: PAPH
  longitude: -158.62
  state: AK
- xml_url: http://weather.gov/xml/current_obs/PAPO.xml
  name: Point Hope Automatic Weather Observing / Reporting
  latitude: 68.35
  id: PAPO
  longitude: -166.81
  state: AK
- xml_url: http://weather.gov/xml/current_obs/PAPR.xml
  name: Prospect Creek Airport
  latitude: 66.817
  id: PAPR
  longitude: -150.65
  state: AK
- xml_url: http://weather.gov/xml/current_obs/PAPT.xml
  name: Puntilla
  latitude: 62.1
  id: PAPT
  longitude: -152.75
  state: AK
- xml_url: http://weather.gov/xml/current_obs/PAQT.xml
  name: Nuiqsut Airport
  latitude: 70.21
  id: PAQT
  longitude: -151.01
  state: AK
- xml_url: http://weather.gov/xml/current_obs/PARC.xml
  name: Arctic Village
  latitude: 68.12
  id: PARC
  longitude: -145.57
  state: AK
- xml_url: http://weather.gov/xml/current_obs/PARD.xml
  name: Red Dog Airport
  latitude: 68.08
  id: PARD
  longitude: -162.83
  state: AK
- xml_url: http://weather.gov/xml/current_obs/PARL.xml
  name: Central Airport
  latitude: 65.57
  id: PARL
  longitude: -144.77
  state: AK
- xml_url: http://weather.gov/xml/current_obs/PASA.xml
  name: Savoonga Airport
  latitude: 63.69
  id: PASA
  longitude: -170.5
  state: AK
- xml_url: http://weather.gov/xml/current_obs/PASC.xml
  name: Deadhorse Airport
  latitude: 70.2
  id: PASC
  longitude: -148.47
  state: AK
- xml_url: http://weather.gov/xml/current_obs/PASD.xml
  name: Sand Point
  latitude: 55.32
  id: PASD
  longitude: -160.52
  state: AK
- xml_url: http://weather.gov/xml/current_obs/PASH.xml
  name: Shishmaref Automatic Wx Obs
  latitude: 66.27
  id: PASH
  longitude: -166.05
  state: AK
- xml_url: http://weather.gov/xml/current_obs/PASI.xml
  name: Sitka
  latitude: 57.07
  id: PASI
  longitude: -135.35
  state: AK
- xml_url: http://weather.gov/xml/current_obs/PASK.xml
  name: Selawik
  latitude: 66.62
  id: PASK
  longitude: -160.0
  state: AK
- xml_url: http://weather.gov/xml/current_obs/PASL.xml
  name: Sleetmute
  latitude: 61.72
  id: PASL
  longitude: -157.15
  state: AK
- xml_url: http://weather.gov/xml/current_obs/PASM.xml
  name: St. Marys Airport
  latitude: 62.07
  id: PASM
  longitude: -163.3
  state: AK
- xml_url: http://weather.gov/xml/current_obs/PASN.xml
  name: St. Paul Is.
  latitude: 57.15
  id: PASN
  longitude: -170.22
  state: AK
- xml_url: http://weather.gov/xml/current_obs/PASO.xml
  name: Seldova Airport
  latitude: 59.44
  id: PASO
  longitude: -151.7
  state: AK
- xml_url: http://weather.gov/xml/current_obs/PASP.xml
  name: Sheep Mountain Airport
  latitude: 61.82
  id: PASP
  longitude: -147.5
  state: AK
- xml_url: http://weather.gov/xml/current_obs/PASV.xml
  name: Sparrevohn
  latitude: 61.1
  id: PASV
  longitude: -155.567
  state: AK
- xml_url: http://weather.gov/xml/current_obs/PASW.xml
  name: Skwentna
  latitude: 61.97
  id: PASW
  longitude: -151.18
  state: AK
- xml_url: http://weather.gov/xml/current_obs/PASX.xml
  name: Soldotna
  latitude: 60.48
  id: PASX
  longitude: -151.03
  state: AK
- xml_url: http://weather.gov/xml/current_obs/PASY.xml
  name: Shemya AFB
  latitude: 52.72
  id: PASY
  longitude: 174.12
  state: AK
- xml_url: http://weather.gov/xml/current_obs/PATA.xml
  name: Tanana, Calhoun Memorial Airport
  latitude: 65.17
  id: PATA
  longitude: -152.1
  state: AK
- xml_url: http://weather.gov/xml/current_obs/PATC.xml
  name: Tin City Airways Facilities Sector
  latitude: 65.57
  id: PATC
  longitude: -167.92
  state: AK
- xml_url: http://weather.gov/xml/current_obs/PATG.xml
  name: Togiak Airport
  latitude: 59.05
  id: PATG
  longitude: -160.41
  state: AK
- xml_url: http://weather.gov/xml/current_obs/PATK.xml
  name: Talkeetna
  latitude: 62.3
  id: PATK
  longitude: -150.1
  state: AK
- xml_url: http://weather.gov/xml/current_obs/PATO.xml
  name: Portage Glacier
  latitude: 60.783
  id: PATO
  longitude: -148.833
  state: AK
- xml_url: http://weather.gov/xml/current_obs/PATW.xml
  name: Cantwell
  latitude: 63.41
  id: PATW
  longitude: -148.95
  state: AK
- xml_url: http://weather.gov/xml/current_obs/PAUN.xml
  name: Unalakleet
  latitude: 63.89
  id: PAUN
  longitude: -160.81
  state: AK
- xml_url: http://weather.gov/xml/current_obs/PAUO.xml
  name: Willow Airport
  latitude: 61.76
  id: PAUO
  longitude: -150.06
  state: AK
- xml_url: http://weather.gov/xml/current_obs/PAVD.xml
  name: Valdez 2
  latitude: 61.13
  id: PAVD
  longitude: -146.25
  state: AK
- xml_url: http://weather.gov/xml/current_obs/PAVL.xml
  name: Kivalina Airport
  latitude: 67.73
  id: PAVL
  longitude: -164.55
  state: AK
- xml_url: http://weather.gov/xml/current_obs/PAVW.xml
  name: Valdez Weather Station Office
  latitude: 61.13
  id: PAVW
  longitude: -146.35
  state: AK
- xml_url: http://weather.gov/xml/current_obs/PAWD.xml
  name: Seward Airport
  latitude: 60.12
  id: PAWD
  longitude: -149.45
  state: AK
- xml_url: http://weather.gov/xml/current_obs/PAWG.xml
  name: Wrangell
  latitude: 56.48
  id: PAWG
  longitude: -132.37
  state: AK
- xml_url: http://weather.gov/xml/current_obs/PAWI.xml
  name: Wainwright Airport
  latitude: 70.62
  id: PAWI
  longitude: -159.86
  state: AK
- xml_url: http://weather.gov/xml/current_obs/PAWN.xml
  name: Noatak
  latitude: 67.57
  id: PAWN
  longitude: -162.98
  state: AK
- xml_url: http://weather.gov/xml/current_obs/PAWR.xml
  name: Whittier
  latitude: 60.77
  id: PAWR
  longitude: -148.69
  state: AK
- xml_url: http://weather.gov/xml/current_obs/PAWS.xml
  name: Wasilla Airport
  latitude: 61.58
  id: PAWS
  longitude: -149.45
  state: AK
- xml_url: http://weather.gov/xml/current_obs/PAXK.xml
  name: Paxson
  latitude: 63.033
  id: PAXK
  longitude: -145.5
  state: AK
- xml_url: http://weather.gov/xml/current_obs/PAYA.xml
  name: Yakutat
  latitude: 59.52
  id: PAYA
  longitude: -139.67
  state: AK
- xml_url: http://weather.gov/xml/current_obs/PAZK.xml
  name: Eureka
  latitude: 61.93
  id: PAZK
  longitude: -147.17
  state: AK
- xml_url: http://weather.gov/xml/current_obs/PFYU.xml
  name: Fort Yukon
  latitude: 66.57
  id: PFYU
  longitude: -145.27
  state: AK
- xml_url: http://weather.gov/xml/current_obs/PPIZ.xml
  name: Point Lay LRRS
  latitude: 69.73
  id: PPIZ
  longitude: -163.02
  state: AK
- xml_url: http://weather.gov/xml/current_obs/PAIG.xml
  name: Igiugig Airport
  latitude: 59.324
  id: PAIG
  longitude: -155.902
  state: AK
- xml_url: http://weather.gov/xml/current_obs/PAMB.xml
  name: Manokotak Airport
  latitude: 58.9902
  id: PAMB
  longitude: -159.05
  state: AK
- xml_url: http://weather.gov/xml/current_obs/PAPN.xml
  name: Pilot Point Airport
  latitude: 57.5804
  id: PAPN
  longitude: -157.572
  state: AK
- xml_url: http://weather.gov/xml/current_obs/PAPM.xml
  name: Platinum Airport
  latitude: 59.0114
  id: PAPM
  longitude: -161.82
  state: AK
- xml_url: http://weather.gov/xml/current_obs/PAGN.xml
  name: Angoon Seaplane Base
  latitude: 57.5036
  id: PAGN
  longitude: -134.585
  state: AK
- xml_url: http://weather.gov/xml/current_obs/PAFS.xml
  name: Nikolai Airport
  latitude: 63.0186
  id: PAFS
  longitude: -154.358
  state: AK
- xml_url: http://weather.gov/xml/current_obs/PATQ.xml
  name: Atqasuk Edward Burnell Sr. Memorial Airport
  latitude: 70.4673
  id: PATQ
  longitude: -157.436
  state: AK
- xml_url: http://weather.gov/xml/current_obs/PALP.xml
  name: Alpine Airstrip
  latitude: 70.3443
  id: PALP
  longitude: -150.945
  state: AK
- xml_url: http://weather.gov/xml/current_obs/PAMK.xml
  name: St Michael Airport
  latitude: 63.4901
  id: PAMK
  longitude: -162.11
  state: AK
- xml_url: http://weather.gov/xml/current_obs/PAMO.xml
  name: Mountain Village Airport
  latitude: 62.0954
  id: PAMO
  longitude: -163.682
  state: AK
- xml_url: http://weather.gov/xml/current_obs/PACM.xml
  name: Scammon Bay Airport
  latitude: 61.8453
  id: PACM
  longitude: -165.571
  state: AK
- xml_url: http://weather.gov/xml/current_obs/PAHC.xml
  name: Holy Cross Airport
  latitude: 62.1883
  id: PAHC
  longitude: -159.775
  state: AK
- xml_url: http://weather.gov/xml/current_obs/PARS.xml
  name: Russian Mission Airport
  latitude: 61.7749
  id: PARS
  longitude: -161.319
  state: AK
- xml_url: http://weather.gov/xml/current_obs/PARY.xml
  name: Ruby Airport
  latitude: 64.7272
  id: PARY
  longitude: -155.47
  state: AK
- xml_url: http://weather.gov/xml/current_obs/PATL.xml
  name: Tatalina LRRS Airport
  latitude: 62.8944
  id: PATL
  longitude: -155.977
  state: AK
- xml_url: http://weather.gov/xml/current_obs/PALG.xml
  name: Kalskag Airport
  latitude: 61.5363
  id: PALG
  longitude: -160.341
  state: AK
- xml_url: http://weather.gov/xml/current_obs/PAOO.xml
  name: Toksook Bay Airport
  latitude: 60.5414
  id: PAOO
  longitude: -165.087
  state: AK
- xml_url: http://weather.gov/xml/current_obs/PADM.xml
  name: Marshall Don Hunter Sr Airport
  latitude: 61.8643
  id: PADM
  longitude: -162.026
  state: AK
- xml_url: http://weather.gov/xml/current_obs/PAVC.xml
  name: King Cove Airport
  latitude: 55.1163
  id: PAVC
  longitude: -162.266
  state: AK
- xml_url: http://weather.gov/xml/current_obs/PAOU.xml
  name: Nelson Lagoon Airport
  latitude: 56.0075
  id: PAOU
  longitude: -161.16
  state: AK
- xml_url: http://weather.gov/xml/current_obs/PAHL.xml
  name: Huslia Airport
  latitude: 65.6979
  id: PAHL
  longitude: -156.351
  state: AK
- xml_url: http://weather.gov/xml/current_obs/K3A1.xml
  name: Folsom Field Airport
  latitude: 34.269
  id: K3A1
  longitude: -86.858
  state: AL
- xml_url: http://weather.gov/xml/current_obs/K4A9.xml
  name: Isbell Field Airport
  latitude: 34.467
  id: K4A9
  longitude: -85.717
  state: AL
- xml_url: http://weather.gov/xml/current_obs/K79J.xml
  name: Andalusia-Opp Municipal Airport
  latitude: 31.317
  id: K79J
  longitude: -86.4
  state: AL
- xml_url: http://weather.gov/xml/current_obs/KALX.xml
  name: Alexander City/T.C. Russell Field
  latitude: 32.915
  id: KALX
  longitude: -85.963
  state: AL
- xml_url: http://weather.gov/xml/current_obs/KANB.xml
  name: Anniston Metropolitan Airport
  latitude: 33.59
  id: KANB
  longitude: -85.85
  state: AL
- xml_url: http://weather.gov/xml/current_obs/KAUO.xml
  name: Auburn-Opelika Airport
  latitude: 32.62
  id: KAUO
  longitude: -85.44
  state: AL
- xml_url: http://weather.gov/xml/current_obs/KBFM.xml
  name: Mobile Downtown Airport
  latitude: 30.64
  id: KBFM
  longitude: -88.07
  state: AL
- xml_url: http://weather.gov/xml/current_obs/KBHM.xml
  name: Birmingham International Airport
  latitude: 33.56
  id: KBHM
  longitude: -86.75
  state: AL
- xml_url: http://weather.gov/xml/current_obs/KCKL.xml
  name: Centreville
  latitude: 32.9
  id: KCKL
  longitude: -87.25
  state: AL
- xml_url: http://weather.gov/xml/current_obs/KDCU.xml
  name: Decatur, Pryor Field
  latitude: 34.66
  id: KDCU
  longitude: -86.94
  state: AL
- xml_url: http://weather.gov/xml/current_obs/KDHN.xml
  name: Dothan Airport
  latitude: 31.32
  id: KDHN
  longitude: -85.45
  state: AL
- xml_url: http://weather.gov/xml/current_obs/KEET.xml
  name: Calera, Shelby County Airport
  latitude: 33.18
  id: KEET
  longitude: -86.78
  state: AL
- xml_url: http://weather.gov/xml/current_obs/KGAD.xml
  name: Gadsden Municipal Automatic Weather Observing
  latitude: 33.97
  id: KGAD
  longitude: -86.09
  state: AL
- xml_url: http://weather.gov/xml/current_obs/KGZH.xml
  name: Evergreen, Middleton Field
  latitude: 31.42
  id: KGZH
  longitude: -87.04
  state: AL
- xml_url: http://weather.gov/xml/current_obs/KHSV.xml
  name: Huntsville International / Jones Field
  latitude: 34.66
  id: KHSV
  longitude: -86.77
  state: AL
- xml_url: http://weather.gov/xml/current_obs/KHUA.xml
  name: Redstone Army Airfield
  latitude: 34.683
  id: KHUA
  longitude: -86.683
  state: AL
- xml_url: http://weather.gov/xml/current_obs/KM82.xml
  name: Huntsville, Madison County Executive Airport
  latitude: 34.85
  id: KM82
  longitude: -86.55
  state: AL
- xml_url: http://weather.gov/xml/current_obs/KMDQ.xml
  name: Huntsville-Madison Co Exec Airport
  latitude: 34.86
  id: KMDQ
  longitude: -86.56
  state: AL
- xml_url: http://weather.gov/xml/current_obs/KMGM.xml
  name: Montgomery, Dannelly Field
  latitude: 32.3
  id: KMGM
  longitude: -86.4
  state: AL
- xml_url: http://weather.gov/xml/current_obs/KMOB.xml
  name: Mobile Regional Airport
  latitude: 30.68
  id: KMOB
  longitude: -88.25
  state: AL
- xml_url: http://weather.gov/xml/current_obs/KMSL.xml
  name: Muscle Shoals, North West Alabama Regional Airport
  latitude: 34.75
  id: KMSL
  longitude: -87.61
  state: AL
- xml_url: http://weather.gov/xml/current_obs/KMXF.xml
  name: Maxwell Air Force Base / Montgomery
  latitude: 32.383
  id: KMXF
  longitude: -86.367
  state: AL
- xml_url: http://weather.gov/xml/current_obs/KOZR.xml
  name: Cairns Army Air Field / Ozark
  latitude: 31.283
  id: KOZR
  longitude: -85.717
  state: AL
- xml_url: http://weather.gov/xml/current_obs/KTCL.xml
  name: Tuscaloosa Regional Airport
  latitude: 33.23
  id: KTCL
  longitude: -87.62
  state: AL
- xml_url: http://weather.gov/xml/current_obs/KTOI.xml
  name: Troy Municipal Airport
  latitude: 31.86
  id: KTOI
  longitude: -86.01
  state: AL
- xml_url: http://weather.gov/xml/current_obs/KHEY.xml
  name: Hanchey Army Heliport (Fort Rucker)
  latitude: 31.346
  id: KHEY
  longitude: -86.654
  state: AL
- xml_url: http://weather.gov/xml/current_obs/KPRN.xml
  name: Mac Crenshaw Memorial Airport
  latitude: 31.8457
  id: KPRN
  longitude: -86.6107
  state: AL
- xml_url: http://weather.gov/xml/current_obs/K1M4.xml
  name: Posey Field Airport
  latitude: 34.28
  id: K1M4
  longitude: -87.6
  state: AL
- xml_url: http://weather.gov/xml/current_obs/KJKA.xml
  name: Jack Edwards Airport
  latitude: 30.2896
  id: KJKA
  longitude: -87.6718
  state: AL
- xml_url: http://weather.gov/xml/current_obs/K8A0.xml
  name: Albertville Regional Airport-Thomas J Brumlik Fiel
  latitude: 34.2291
  id: K8A0
  longitude: -86.2558
  state: AL
- xml_url: http://weather.gov/xml/current_obs/KARG.xml
  name: Walnut Ridge Automatic Weather Observing / Report
  latitude: 36.1255
  id: KARG
  longitude: -90.9216
  state: AR
- xml_url: http://weather.gov/xml/current_obs/KASG.xml
  name: Springdale Municipal
  latitude: 36.19
  id: KASG
  longitude: -94.12
  state: AR
- xml_url: http://weather.gov/xml/current_obs/KAWM.xml
  name: West Memphis
  latitude: 35.135
  id: KAWM
  longitude: -90.234
  state: AR
- xml_url: http://weather.gov/xml/current_obs/KBPK.xml
  name: Mountain Home, Ozark Regional Airport
  latitude: 36.37
  id: KBPK
  longitude: -92.47
  state: AR
- xml_url: http://weather.gov/xml/current_obs/KBVX.xml
  name: Batesville Automatic Weather Observing / Reporting
  latitude: 35.73
  id: KBVX
  longitude: -91.65
  state: AR
- xml_url: http://weather.gov/xml/current_obs/KBYH.xml
  name: Eaker Air Force Base
  latitude: 35.967
  id: KBYH
  longitude: -89.95
  state: AR
- xml_url: http://weather.gov/xml/current_obs/KDEQ.xml
  name: De Queen, Helms Sevier County Airport
  latitude: 34.05
  id: KDEQ
  longitude: -94.4
  state: AR
- xml_url: http://weather.gov/xml/current_obs/KELD.xml
  name: El Dorado, So. Arkansas Regional at Goodwin Field
  latitude: 33.23
  id: KELD
  longitude: -92.8
  state: AR
- xml_url: http://weather.gov/xml/current_obs/KFLP.xml
  name: Flippin Automatic Weather Observing/Reporting Sys
  latitude: 36.29
  id: KFLP
  longitude: -92.59
  state: AR
- xml_url: http://weather.gov/xml/current_obs/KFSM.xml
  name: Fort Smith Regional Airport
  latitude: 35.34
  id: KFSM
  longitude: -94.37
  state: AR
- xml_url: http://weather.gov/xml/current_obs/KFYV.xml
  name: Fayetteville, Drake Field
  latitude: 36.01
  id: KFYV
  longitude: -94.17
  state: AR
- xml_url: http://weather.gov/xml/current_obs/KHKA.xml
  name: Blytheville Municipal Airport
  latitude: 35.94
  id: KHKA
  longitude: -89.83
  state: AR
- xml_url: http://weather.gov/xml/current_obs/KHOT.xml
  name: Hot Springs, Memorial Field Airport
  latitude: 34.48
  id: KHOT
  longitude: -93.1
  state: AR
- xml_url: http://weather.gov/xml/current_obs/KHRO.xml
  name: Harrison, Boone County Airport
  latitude: 36.28
  id: KHRO
  longitude: -93.15
  state: AR
- xml_url: http://weather.gov/xml/current_obs/KJBR.xml
  name: Jonesboro Municipal Airport
  latitude: 35.83
  id: KJBR
  longitude: -90.65
  state: AR
- xml_url: http://weather.gov/xml/current_obs/KLIT.xml
  name: Little Rock, Adams Field
  latitude: 34.73
  id: KLIT
  longitude: -92.23
  state: AR
- xml_url: http://weather.gov/xml/current_obs/KLLQ.xml
  name: Monticello Municipal Airport
  latitude: 33.64
  id: KLLQ
  longitude: -91.75
  state: AR
- xml_url: http://weather.gov/xml/current_obs/KLRF.xml
  name: Little Rock Air Force Base
  latitude: 34.917
  id: KLRF
  longitude: -92.15
  state: AR
- xml_url: http://weather.gov/xml/current_obs/KMEZ.xml
  name: Mena Intermountain Municipal Airport
  latitude: 34.55
  id: KMEZ
  longitude: -93.583
  state: AR
- xml_url: http://weather.gov/xml/current_obs/KMWT.xml
  name: Mount Ida
  latitude: 34.547
  id: KMWT
  longitude: -93.578
  state: AR
- xml_url: http://weather.gov/xml/current_obs/KPBF.xml
  name: Pine Bluff, Grider Field Airport
  latitude: 34.18
  id: KPBF
  longitude: -91.93
  state: AR
- xml_url: http://weather.gov/xml/current_obs/KROG.xml
  name: Rogers Automatic Weather Observing / Reporting Sys
  latitude: 36.38
  id: KROG
  longitude: -94.11
  state: AR
- xml_url: http://weather.gov/xml/current_obs/KRUE.xml
  name: Russellville Municipal Airport
  latitude: 35.26
  id: KRUE
  longitude: -93.09
  state: AR
- xml_url: http://weather.gov/xml/current_obs/KSGT.xml
  name: Stuttgart Automatic Weather Observing / Reporting
  latitude: 34.61
  id: KSGT
  longitude: -91.57
  state: AR
- xml_url: http://weather.gov/xml/current_obs/KSLG.xml
  name: Siloam Springs Automatic Weather Observing/Report
  latitude: 36.19
  id: KSLG
  longitude: -94.49
  state: AR
- xml_url: http://weather.gov/xml/current_obs/KM19.xml
  name: Newport Municipal Airport
  latitude: 35.6
  id: KM19
  longitude: -91.2
  state: AR
- xml_url: http://weather.gov/xml/current_obs/KTXK.xml
  name: Texarkana Regional-Webb Field
  latitude: 33.46
  id: KTXK
  longitude: -94.0
  state: AR
- xml_url: http://weather.gov/xml/current_obs/KVBT.xml
  name: Bentonville Automatic Weather Observing/Reporting
  latitude: 36.35
  id: KVBT
  longitude: -94.22
  state: AR
- xml_url: http://weather.gov/xml/current_obs/KXNA.xml
  name: Fayetteville/Springdale, NW Arkansas Regl Airport
  latitude: 36.282
  id: KXNA
  longitude: -94.307
  state: AR
- xml_url: http://weather.gov/xml/current_obs/KM89.xml
  name: Dexter B Florence Memorial Field Airport
  latitude: 34.1
  id: KM89
  longitude: -93.07
  state: AR
- xml_url: http://weather.gov/xml/current_obs/KCCA.xml
  name: Clinton Municipal Airport
  latitude: 35.598
  id: KCCA
  longitude: -92.352
  state: AR
- xml_url: http://weather.gov/xml/current_obs/KCDH.xml
  name: Harrell Field Airport
  latitude: 33.623
  id: KCDH
  longitude: -92.763
  state: AR
- xml_url: http://weather.gov/xml/current_obs/NSTU.xml
  name: Pago Pago
  latitude: -14.333
  id: NSTU
  longitude: -170.717
  state: AS
- xml_url: http://weather.gov/xml/current_obs/TNCA.xml
  name: Queen Beatrix Airport
  latitude: 12.5
  id: TNCA
  longitude: -70.017
  state: AW
- xml_url: http://weather.gov/xml/current_obs/K40G.xml
  name: Grand Canyon, Valle Airport
  latitude: 35.65
  id: K40G
  longitude: -112.15
  state: AZ
- xml_url: http://weather.gov/xml/current_obs/KCGZ.xml
  name: Casa Grande (awos)
  latitude: 32.96
  id: KCGZ
  longitude: -111.77
  state: AZ
- xml_url: http://weather.gov/xml/current_obs/KCHD.xml
  name: Chandler Municipal Airport
  latitude: 33.27
  id: KCHD
  longitude: -111.81
  state: AZ
- xml_url: http://weather.gov/xml/current_obs/KDMA.xml
  name: Davis-Monthan AFB
  latitude: 32.18
  id: KDMA
  longitude: -110.88
  state: AZ
- xml_url: http://weather.gov/xml/current_obs/KDUG.xml
  name: Douglas Bisbee Intl Airport
  latitude: 31.45
  id: KDUG
  longitude: -109.6
  state: AZ
- xml_url: http://weather.gov/xml/current_obs/KDVT.xml
  name: Deer Valley/Phoenix
  latitude: 33.69
  id: KDVT
  longitude: -112.08
  state: AZ
- xml_url: http://weather.gov/xml/current_obs/KFFZ.xml
  name: Mesa/Falcon Field
  latitude: 33.46
  id: KFFZ
  longitude: -111.73
  state: AZ
- xml_url: http://weather.gov/xml/current_obs/KFHU.xml
  name: Fort Huachuca/Libby
  latitude: 31.58
  id: KFHU
  longitude: -110.33
  state: AZ
- xml_url: http://weather.gov/xml/current_obs/KFLG.xml
  name: Flagstaff (amos)
  latitude: 35.14
  id: KFLG
  longitude: -111.67
  state: AZ
- xml_url: http://weather.gov/xml/current_obs/KGBN.xml
  name: Gila Bend (aaf)
  latitude: 32.89
  id: KGBN
  longitude: -112.72
  state: AZ
- xml_url: http://weather.gov/xml/current_obs/KGCN.xml
  name: Grand Canyon Park
  latitude: 35.96
  id: KGCN
  longitude: -112.15
  state: AZ
- xml_url: http://weather.gov/xml/current_obs/KGEU.xml
  name: Glendale
  latitude: 33.53
  id: KGEU
  longitude: -112.3
  state: AZ
- xml_url: http://weather.gov/xml/current_obs/KGYR.xml
  name: Goodyear Municipal
  latitude: 33.42
  id: KGYR
  longitude: -112.39
  state: AZ
- xml_url: http://weather.gov/xml/current_obs/KIFP.xml
  name: Bull Head City
  latitude: 35.11
  id: KIFP
  longitude: -114.5
  state: AZ
- xml_url: http://weather.gov/xml/current_obs/KIGM.xml
  name: Kingman (amos)
  latitude: 35.28
  id: KIGM
  longitude: -113.95
  state: AZ
- xml_url: http://weather.gov/xml/current_obs/KINW.xml
  name: Winslow (aut)
  latitude: 35.03
  id: KINW
  longitude: -110.73
  state: AZ
- xml_url: http://weather.gov/xml/current_obs/KIWA.xml
  name: Williams AFB/Chandl
  latitude: 33.3
  id: KIWA
  longitude: -111.67
  state: AZ
- xml_url: http://weather.gov/xml/current_obs/KLUF.xml
  name: Luke AFB/Phoenix
  latitude: 33.59
  id: KLUF
  longitude: -112.37
  state: AZ
- xml_url: http://weather.gov/xml/current_obs/KNYL.xml
  name: Yuma Mcas
  latitude: 32.39
  id: KNYL
  longitude: -114.37
  state: AZ
- xml_url: http://weather.gov/xml/current_obs/KOLS.xml
  name: Nogales Intl Airport
  latitude: 31.42
  id: KOLS
  longitude: -110.85
  state: AZ
- xml_url: http://weather.gov/xml/current_obs/KPGA.xml
  name: Page Muni (amos)
  latitude: 36.94
  id: KPGA
  longitude: -111.45
  state: AZ
- xml_url: http://weather.gov/xml/current_obs/KPHX.xml
  name: Phoenix/Sky Harbor
  latitude: 33.44
  id: KPHX
  longitude: -112.02
  state: AZ
- xml_url: http://weather.gov/xml/current_obs/KPRC.xml
  name: Prescott/Love Fld
  latitude: 34.65
  id: KPRC
  longitude: -112.42
  state: AZ
- xml_url: http://weather.gov/xml/current_obs/KRQE.xml
  name: Window Rock (was P34)
  latitude: 35.657
  id: KRQE
  longitude: -109.061
  state: AZ
- xml_url: http://weather.gov/xml/current_obs/KSAD.xml
  name: Safford Municipal
  latitude: 32.85
  id: KSAD
  longitude: -109.64
  state: AZ
- xml_url: http://weather.gov/xml/current_obs/KSDL.xml
  name: Scottsdale Muni
  latitude: 33.61
  id: KSDL
  longitude: -111.91
  state: AZ
- xml_url: http://weather.gov/xml/current_obs/KSJN.xml
  name: St. Johns Air Park
  latitude: 34.52
  id: KSJN
  longitude: -109.38
  state: AZ
- xml_url: http://weather.gov/xml/current_obs/KSOW.xml
  name: Show Low Municipal
  latitude: 34.28
  id: KSOW
  longitude: -110.0
  state: AZ
- xml_url: http://weather.gov/xml/current_obs/KTUS.xml
  name: Tucson Intl Airport
  latitude: 32.12
  id: KTUS
  longitude: -110.93
  state: AZ
- xml_url: http://weather.gov/xml/current_obs/KWTR.xml
  name: Whiteriver Airport
  latitude: 41.4
  id: KWTR
  longitude: -104.867
  state: AZ
- xml_url: http://weather.gov/xml/current_obs/KYUM.xml
  name: Yuma
  latitude: 32.667
  id: KYUM
  longitude: -114.6
  state: AZ
- xml_url: http://weather.gov/xml/current_obs/TBPB.xml
  name: Grantley Adams
  latitude: 13.067
  id: TBPB
  longitude: -59.483
  state: BB
- xml_url: http://weather.gov/xml/current_obs/MYNN.xml
  name: Nassau Bahamas
  latitude: 25.05
  id: MYNN
  longitude: -77.467
  state: BH
- xml_url: http://weather.gov/xml/current_obs/K3A6.xml
  name: Newhall
  latitude: 34.4
  id: K3A6
  longitude: -118.6
  state: CA
- xml_url: http://weather.gov/xml/current_obs/K87Q.xml
  name: Pt Piedras(cg/Amos)
  latitude: 35.68
  id: K87Q
  longitude: -121.28
  state: CA
- xml_url: http://weather.gov/xml/current_obs/K9L2.xml
  name: Edwards Air Force Aux No Base
  latitude: 34.983
  id: K9L2
  longitude: -117.867
  state: CA
- xml_url: http://weather.gov/xml/current_obs/KAAT.xml
  name: Alturas (was O00)
  latitude: 41.491
  id: KAAT
  longitude: -120.564
  state: CA
- xml_url: http://weather.gov/xml/current_obs/KACV.xml
  name: Arcata/Eureka Airport
  latitude: 40.99
  id: KACV
  longitude: -124.1
  state: CA
- xml_url: http://weather.gov/xml/current_obs/KAPC.xml
  name: Napa Co. Airport
  latitude: 38.21
  id: KAPC
  longitude: -122.28
  state: CA
- xml_url: http://weather.gov/xml/current_obs/KAUN.xml
  name: Auburn Muni Airport
  latitude: 38.955
  id: KAUN
  longitude: -121.082
  state: CA
- xml_url: http://weather.gov/xml/current_obs/KAVX.xml
  name: Avalon, Catalina Airport
  latitude: 33.41
  id: KAVX
  longitude: -118.42
  state: CA
- xml_url: http://weather.gov/xml/current_obs/KBAB.xml
  name: Beale AFB/Marysville
  latitude: 39.14
  id: KBAB
  longitude: -121.44
  state: CA
- xml_url: http://weather.gov/xml/current_obs/KBFL.xml
  name: Bakersfield/Meadows
  latitude: 35.43
  id: KBFL
  longitude: -119.05
  state: CA
- xml_url: http://weather.gov/xml/current_obs/KBIH.xml
  name: Bishop Airport
  latitude: 37.37
  id: KBIH
  longitude: -118.37
  state: CA
- xml_url: http://weather.gov/xml/current_obs/KBLH.xml
  name: Blythe Airport
  latitude: 33.62
  id: KBLH
  longitude: -114.72
  state: CA
- xml_url: http://weather.gov/xml/current_obs/KBLU.xml
  name: Blue Canyon (amos)
  latitude: 39.29
  id: KBLU
  longitude: -120.7
  state: CA
- xml_url: http://weather.gov/xml/current_obs/KBNY.xml
  name: Burney
  latitude: 40.883
  id: KBNY
  longitude: -121.667
  state: CA
- xml_url: http://weather.gov/xml/current_obs/KBUR.xml
  name: Burbank/Glendale
  latitude: 34.2
  id: KBUR
  longitude: -118.36
  state: CA
- xml_url: http://weather.gov/xml/current_obs/KCCR.xml
  name: Concord/Buchanan
  latitude: 37.98
  id: KCCR
  longitude: -122.05
  state: CA
- xml_url: http://weather.gov/xml/current_obs/KCEC.xml
  name: Crescent City
  latitude: 41.79
  id: KCEC
  longitude: -124.24
  state: CA
- xml_url: http://weather.gov/xml/current_obs/KCIC.xml
  name: Chico Municipal
  latitude: 39.79
  id: KCIC
  longitude: -121.85
  state: CA
- xml_url: http://weather.gov/xml/current_obs/KCMA.xml
  name: Camarillo (awos)
  latitude: 34.21
  id: KCMA
  longitude: -119.09
  state: CA
- xml_url: http://weather.gov/xml/current_obs/KCNO.xml
  name: Chino Airport
  latitude: 33.97
  id: KCNO
  longitude: -117.64
  state: CA
- xml_url: http://weather.gov/xml/current_obs/KCQT.xml
  name: Los Angeles Downtown/Usc
  latitude: 34.02
  id: KCQT
  longitude: -118.28
  state: CA
- xml_url: http://weather.gov/xml/current_obs/KCRQ.xml
  name: Carlsbad/Palomar
  latitude: 33.14
  id: KCRQ
  longitude: -117.28
  state: CA
- xml_url: http://weather.gov/xml/current_obs/KCZZ.xml
  name: Campo (awrs)
  latitude: 32.62
  id: KCZZ
  longitude: -116.47
  state: CA
- xml_url: http://weather.gov/xml/current_obs/KDAG.xml
  name: Barstow-Daggett
  latitude: 34.88
  id: KDAG
  longitude: -116.78
  state: CA
- xml_url: http://weather.gov/xml/current_obs/KEDW.xml
  name: Edwards AFB
  latitude: 34.91
  id: KEDW
  longitude: -117.87
  state: CA
- xml_url: http://weather.gov/xml/current_obs/KEED.xml
  name: Needles Airport
  latitude: 34.78
  id: KEED
  longitude: -114.62
  state: CA
- xml_url: http://weather.gov/xml/current_obs/KEKA.xml
  name: Eureka
  latitude: 40.8
  id: KEKA
  longitude: -124.167
  state: CA
- xml_url: http://weather.gov/xml/current_obs/KEMT.xml
  name: El Monte
  latitude: 34.09
  id: KEMT
  longitude: -118.03
  state: CA
- xml_url: http://weather.gov/xml/current_obs/KFAT.xml
  name: Fresno Air Terminal
  latitude: 36.78
  id: KFAT
  longitude: -119.72
  state: CA
- xml_url: http://weather.gov/xml/current_obs/KFUL.xml
  name: Fullerton Municipal
  latitude: 33.87
  id: KFUL
  longitude: -117.98
  state: CA
- xml_url: http://weather.gov/xml/current_obs/KHHR.xml
  name: Hawthorne Municipal
  latitude: 33.93
  id: KHHR
  longitude: -118.34
  state: CA
- xml_url: http://weather.gov/xml/current_obs/KHJO.xml
  name: Hanford
  latitude: 36.318
  id: KHJO
  longitude: -119.629
  state: CA
- xml_url: http://weather.gov/xml/current_obs/KHWD.xml
  name: Hayward Air Term
  latitude: 37.66
  id: KHWD
  longitude: -122.12
  state: CA
- xml_url: http://weather.gov/xml/current_obs/KIPL.xml
  name: Imperial
  latitude: 32.84
  id: KIPL
  longitude: -115.57
  state: CA
- xml_url: http://weather.gov/xml/current_obs/KIYK.xml
  name: Inyokern
  latitude: 35.66
  id: KIYK
  longitude: -117.83
  state: CA
- xml_url: http://weather.gov/xml/current_obs/KIZA.xml
  name: Santa Ynez Airport
  latitude: 34.6
  id: KIZA
  longitude: -120.067
  state: CA
- xml_url: http://weather.gov/xml/current_obs/KLAX.xml
  name: Los Angeles Intl Airport
  latitude: 33.94
  id: KLAX
  longitude: -118.4
  state: CA
- xml_url: http://weather.gov/xml/current_obs/KLGB.xml
  name: Long Beach Airport
  latitude: 33.83
  id: KLGB
  longitude: -118.15
  state: CA
- xml_url: http://weather.gov/xml/current_obs/KLPC.xml
  name: Lompoc (awos)
  latitude: 34.67
  id: KLPC
  longitude: -120.47
  state: CA
- xml_url: http://weather.gov/xml/current_obs/KLVK.xml
  name: Livermore Municipal
  latitude: 37.7
  id: KLVK
  longitude: -121.82
  state: CA
- xml_url: http://weather.gov/xml/current_obs/KMAE.xml
  name: Madera Municipal Airport
  latitude: 36.99
  id: KMAE
  longitude: -120.11
  state: CA
- xml_url: http://weather.gov/xml/current_obs/KMCC.xml
  name: McClellan Airfield
  latitude: 38.667
  id: KMCC
  longitude: -121.4
  state: CA
- xml_url: http://weather.gov/xml/current_obs/KMCE.xml
  name: Merced/Macready Fld
  latitude: 37.29
  id: KMCE
  longitude: -120.52
  state: CA
- xml_url: http://weather.gov/xml/current_obs/KMHR.xml
  name: Mather Field
  latitude: 38.58
  id: KMHR
  longitude: -121.3
  state: CA
- xml_url: http://weather.gov/xml/current_obs/KMHS.xml
  name: Mount Shasta (amos)
  latitude: 41.33
  id: KMHS
  longitude: -122.32
  state: CA
- xml_url: http://weather.gov/xml/current_obs/KMHV.xml
  name: Mojave
  latitude: 35.07
  id: KMHV
  longitude: -118.16
  state: CA
- xml_url: http://weather.gov/xml/current_obs/KMMH.xml
  name: Mammoth/June Lakes
  latitude: 37.64
  id: KMMH
  longitude: -118.92
  state: CA
- xml_url: http://weather.gov/xml/current_obs/KMOD.xml
  name: Modesto City/Sham
  latitude: 37.63
  id: KMOD
  longitude: -120.95
  state: CA
- xml_url: http://weather.gov/xml/current_obs/KMRY.xml
  name: Monterey Peninsula
  latitude: 36.59
  id: KMRY
  longitude: -121.84
  state: CA
- xml_url: http://weather.gov/xml/current_obs/KMWS.xml
  name: Mount Wilson
  latitude: 34.233
  id: KMWS
  longitude: -118.067
  state: CA
- xml_url: http://weather.gov/xml/current_obs/KMYF.xml
  name: San Diego/Montg
  latitude: 32.83
  id: KMYF
  longitude: -117.13
  state: CA
- xml_url: http://weather.gov/xml/current_obs/KMYV.xml
  name: Marysville/Yuba Co.
  latitude: 39.11
  id: KMYV
  longitude: -121.57
  state: CA
- xml_url: http://weather.gov/xml/current_obs/KNFG.xml
  name: Camp Pendleton Mcas
  latitude: 33.3
  id: KNFG
  longitude: -117.35
  state: CA
- xml_url: http://weather.gov/xml/current_obs/KNID.xml
  name: China Lake (naf)
  latitude: 35.69
  id: KNID
  longitude: -117.68
  state: CA
- xml_url: http://weather.gov/xml/current_obs/KNJK.xml
  name: El Centro Naf
  latitude: 32.83
  id: KNJK
  longitude: -115.68
  state: CA
- xml_url: http://weather.gov/xml/current_obs/KNKX.xml
  name: Miramar Nas
  latitude: 32.88
  id: KNKX
  longitude: -117.15
  state: CA
- xml_url: http://weather.gov/xml/current_obs/KNLC.xml
  name: Lemoore Nas/Reeves
  latitude: 36.3
  id: KNLC
  longitude: -119.9
  state: CA
- xml_url: http://weather.gov/xml/current_obs/KNRS.xml
  name: Imperial Beach/Ream
  latitude: 32.58
  id: KNRS
  longitude: -117.12
  state: CA
- xml_url: http://weather.gov/xml/current_obs/KNSI.xml
  name: San Nicolas Island
  latitude: 33.26
  id: KNSI
  longitude: -119.45
  state: CA
- xml_url: http://weather.gov/xml/current_obs/KNTD.xml
  name: Pt Mugu Naws
  latitude: 34.12
  id: KNTD
  longitude: -119.12
  state: CA
- xml_url: http://weather.gov/xml/current_obs/KNUC.xml
  name: Naval Auxiliary Landing Field
  latitude: 33.03
  id: KNUC
  longitude: -118.58
  state: CA
- xml_url: http://weather.gov/xml/current_obs/KNUQ.xml
  name: Moffett Nas/Mtn Vie
  latitude: 37.43
  id: KNUQ
  longitude: -122.05
  state: CA
- xml_url: http://weather.gov/xml/current_obs/KNXP.xml
  name: Twentynine Palms
  latitude: 34.3
  id: KNXP
  longitude: -116.17
  state: CA
- xml_url: http://weather.gov/xml/current_obs/KNZY.xml
  name: North Island Nas
  latitude: 32.71
  id: KNZY
  longitude: -117.2
  state: CA
- xml_url: http://weather.gov/xml/current_obs/KO87.xml
  name: Shelter Cove
  latitude: 40.04
  id: KO87
  longitude: -124.07
  state: CA
- xml_url: http://weather.gov/xml/current_obs/KOAK.xml
  name: Oakland
  latitude: 37.7
  id: KOAK
  longitude: -122.22
  state: CA
- xml_url: http://weather.gov/xml/current_obs/KOKB.xml
  name: Oceanside Municipal (was L32)
  latitude: 33.219
  id: KOKB
  longitude: -117.349
  state: CA
- xml_url: http://weather.gov/xml/current_obs/KONT.xml
  name: Ontario Intl Arpt
  latitude: 34.06
  id: KONT
  longitude: -117.6
  state: CA
- xml_url: http://weather.gov/xml/current_obs/KOVE.xml
  name: Oroville
  latitude: 39.49
  id: KOVE
  longitude: -121.62
  state: CA
- xml_url: http://weather.gov/xml/current_obs/KOXR.xml
  name: Oxnard
  latitude: 34.21
  id: KOXR
  longitude: -119.2
  state: CA
- xml_url: http://weather.gov/xml/current_obs/KPAO.xml
  name: Palo Alto Airport
  latitude: 37.48
  id: KPAO
  longitude: -122.12
  state: CA
- xml_url: http://weather.gov/xml/current_obs/KPMD.xml
  name: Palmdale Production
  latitude: 34.63
  id: KPMD
  longitude: -118.08
  state: CA
- xml_url: http://weather.gov/xml/current_obs/KPOC.xml
  name: La Verne/Brackett
  latitude: 34.11
  id: KPOC
  longitude: -117.78
  state: CA
- xml_url: http://weather.gov/xml/current_obs/KPRB.xml
  name: Paso Robles Muni
  latitude: 35.68
  id: KPRB
  longitude: -120.63
  state: CA
- xml_url: http://weather.gov/xml/current_obs/KPSP.xml
  name: Palm Springs Rgnl
  latitude: 33.84
  id: KPSP
  longitude: -116.5
  state: CA
- xml_url: http://weather.gov/xml/current_obs/KPTV.xml
  name: Porterville (awos)
  latitude: 36.04
  id: KPTV
  longitude: -119.07
  state: CA
- xml_url: http://weather.gov/xml/current_obs/KRAL.xml
  name: Riverside Municipal
  latitude: 33.95
  id: KRAL
  longitude: -117.45
  state: CA
- xml_url: http://weather.gov/xml/current_obs/KRBL.xml
  name: Red Bluff Municipal
  latitude: 40.15
  id: KRBL
  longitude: -122.25
  state: CA
- xml_url: http://weather.gov/xml/current_obs/KRDD.xml
  name: Redding Municipal
  latitude: 40.51
  id: KRDD
  longitude: -122.3
  state: CA
- xml_url: http://weather.gov/xml/current_obs/KRHV.xml
  name: San Jose/Reid/Hillv
  latitude: 37.34
  id: KRHV
  longitude: -121.82
  state: CA
- xml_url: http://weather.gov/xml/current_obs/KRIV.xml
  name: March AFB/Riverside
  latitude: 33.89
  id: KRIV
  longitude: -117.27
  state: CA
- xml_url: http://weather.gov/xml/current_obs/KRNM.xml
  name: Ramona Airport
  latitude: 33.04
  id: KRNM
  longitude: -116.91
  state: CA
- xml_url: http://weather.gov/xml/current_obs/KSAC.xml
  name: Sacramento/Executiv
  latitude: 38.52
  id: KSAC
  longitude: -121.5
  state: CA
- xml_url: http://weather.gov/xml/current_obs/KSAN.xml
  name: San Diego/Lindbergh
  latitude: 32.73
  id: KSAN
  longitude: -117.17
  state: CA
- xml_url: http://weather.gov/xml/current_obs/KSBA.xml
  name: Santa Barbara Muni
  latitude: 34.44
  id: KSBA
  longitude: -119.83
  state: CA
- xml_url: http://weather.gov/xml/current_obs/KSBP.xml
  name: San Luis Obispo
  latitude: 35.24
  id: KSBP
  longitude: -120.64
  state: CA
- xml_url: http://weather.gov/xml/current_obs/KSCK.xml
  name: Stockton Metro
  latitude: 37.91
  id: KSCK
  longitude: -121.25
  state: CA
- xml_url: http://weather.gov/xml/current_obs/KSDB.xml
  name: Sandberg (aut)
  latitude: 34.76
  id: KSDB
  longitude: -118.73
  state: CA
- xml_url: http://weather.gov/xml/current_obs/KSDM.xml
  name: San Diego/Brown Fld
  latitude: 32.58
  id: KSDM
  longitude: -116.98
  state: CA
- xml_url: http://weather.gov/xml/current_obs/KSEE.xml
  name: San Diego/Gillespie
  latitude: 32.83
  id: KSEE
  longitude: -116.97
  state: CA
- xml_url: http://weather.gov/xml/current_obs/KSFO.xml
  name: San Francisco Intl Airport
  latitude: 37.62
  id: KSFO
  longitude: -122.36
  state: CA
- xml_url: http://weather.gov/xml/current_obs/KSIY.xml
  name: Montague/Siskiyou
  latitude: 41.79
  id: KSIY
  longitude: -122.47
  state: CA
- xml_url: http://weather.gov/xml/current_obs/KSJC.xml
  name: San Jose International Airport
  latitude: 37.37
  id: KSJC
  longitude: -121.93
  state: CA
- xml_url: http://weather.gov/xml/current_obs/KSLI.xml
  name: Los Alamitos Aaf
  latitude: 33.79
  id: KSLI
  longitude: -118.05
  state: CA
- xml_url: http://weather.gov/xml/current_obs/KSMF.xml
  name: Sacramento Metro
  latitude: 38.7
  id: KSMF
  longitude: -121.6
  state: CA
- xml_url: http://weather.gov/xml/current_obs/KSMO.xml
  name: Santa Monica Muni
  latitude: 34.03
  id: KSMO
  longitude: -118.45
  state: CA
- xml_url: http://weather.gov/xml/current_obs/KSMX.xml
  name: Santa Maria Public
  latitude: 34.91
  id: KSMX
  longitude: -120.45
  state: CA
- xml_url: http://weather.gov/xml/current_obs/KSNA.xml
  name: Santa Ana/John-Wayne
  latitude: 33.68
  id: KSNA
  longitude: -117.88
  state: CA
- xml_url: http://weather.gov/xml/current_obs/KSNS.xml
  name: Salinas Municipal
  latitude: 36.66
  id: KSNS
  longitude: -121.61
  state: CA
- xml_url: http://weather.gov/xml/current_obs/KSQL.xml
  name: San Carlos Airport
  latitude: 37.53
  id: KSQL
  longitude: -122.25
  state: CA
- xml_url: http://weather.gov/xml/current_obs/KSTS.xml
  name: Santa Rosa (awos)
  latitude: 38.51
  id: KSTS
  longitude: -122.81
  state: CA
- xml_url: http://weather.gov/xml/current_obs/KSUU.xml
  name: Travis AFB/Fairfield
  latitude: 38.28
  id: KSUU
  longitude: -121.93
  state: CA
- xml_url: http://weather.gov/xml/current_obs/KTOA.xml
  name: Torrance Municipal
  latitude: 33.8
  id: KTOA
  longitude: -118.33
  state: CA
- xml_url: http://weather.gov/xml/current_obs/KTRK.xml
  name: Truckee-Tahoe
  latitude: 39.33
  id: KTRK
  longitude: -120.13
  state: CA
- xml_url: http://weather.gov/xml/current_obs/KTRM.xml
  name: Thermal Airport
  latitude: 33.64
  id: KTRM
  longitude: -116.17
  state: CA
- xml_url: http://weather.gov/xml/current_obs/KTVL.xml
  name: South Lake Tahoe
  latitude: 38.91
  id: KTVL
  longitude: -120.0
  state: CA
- xml_url: http://weather.gov/xml/current_obs/KUKI.xml
  name: Ukiah Muni (awos)
  latitude: 39.14
  id: KUKI
  longitude: -123.2
  state: CA
- xml_url: http://weather.gov/xml/current_obs/KVBG.xml
  name: Vandenberg AFB
  latitude: 34.73
  id: KVBG
  longitude: -120.55
  state: CA
- xml_url: http://weather.gov/xml/current_obs/KVCB.xml
  name: Nut Tree Airport
  latitude: 38.378
  id: KVCB
  longitude: -121.957
  state: CA
- xml_url: http://weather.gov/xml/current_obs/KVCV.xml
  name: Southern California Logisitics Airport
  latitude: 34.583
  id: KVCV
  longitude: -117.383
  state: CA
- xml_url: http://weather.gov/xml/current_obs/KVIS.xml
  name: Visalia Muni
  latitude: 36.33
  id: KVIS
  longitude: -119.4
  state: CA
- xml_url: http://weather.gov/xml/current_obs/KVNY.xml
  name: Van Nuys Airport
  latitude: 34.21
  id: KVNY
  longitude: -118.49
  state: CA
- xml_url: http://weather.gov/xml/current_obs/KWHP.xml
  name: Los Angeles-Whiteman Airport
  latitude: 34.26
  id: KWHP
  longitude: -118.41
  state: CA
- xml_url: http://weather.gov/xml/current_obs/KWJF.xml
  name: Lancaster/Fox F
  latitude: 34.73
  id: KWJF
  longitude: -118.22
  state: CA
- xml_url: http://weather.gov/xml/current_obs/KWVI.xml
  name: Bami11
  latitude: 36.94
  id: KWVI
  longitude: -121.79
  state: CA
- xml_url: http://weather.gov/xml/current_obs/KXVW.xml
  name: Vandenberg Range
  latitude: 34.717
  id: KXVW
  longitude: -120.567
  state: CA
- xml_url: http://weather.gov/xml/current_obs/KCXL.xml
  name: Calexico International Airport
  latitude: 0.0
  id: KCXL
  longitude: 0.0
  state: CA
- xml_url: http://weather.gov/xml/current_obs/KL35.xml
  name: Big Bear City Airport
  latitude: 34.27
  id: KL35
  longitude: -116.85
  state: CA
- xml_url: http://weather.gov/xml/current_obs/KAJO.xml
  name: Corona Airport
  latitude: 33.87
  id: KAJO
  longitude: -117.57
  state: CA
- xml_url: http://weather.gov/xml/current_obs/K04V.xml
  name: Saguache
  latitude: 38.1
  id: K04V
  longitude: -106.167
  state: CO
- xml_url: http://weather.gov/xml/current_obs/K20V.xml
  name: Kremmling County/McElroy Airfield Airport
  latitude: 40.05
  id: K20V
  longitude: -106.36
  state: CO
- xml_url: http://weather.gov/xml/current_obs/K3MW.xml
  name: Mount Werner
  latitude: 40.267
  id: K3MW
  longitude: -106.45
  state: CO
- xml_url: http://weather.gov/xml/current_obs/K4BM.xml
  name: Wilkerson Pass
  latitude: 39.05
  id: K4BM
  longitude: -105.514
  state: CO
- xml_url: http://weather.gov/xml/current_obs/K5SM.xml
  name: Sunlight
  latitude: 39.417
  id: K5SM
  longitude: -107.367
  state: CO
- xml_url: http://weather.gov/xml/current_obs/K7BM.xml
  name: Cottonwood Pass
  latitude: 38.8
  id: K7BM
  longitude: -106.217
  state: CO
- xml_url: http://weather.gov/xml/current_obs/KAFF.xml
  name: Air Force Academy
  latitude: 38.98
  id: KAFF
  longitude: -104.82
  state: CO
- xml_url: http://weather.gov/xml/current_obs/KAKO.xml
  name: Akron/Washington Co
  latitude: 40.17
  id: KAKO
  longitude: -103.22
  state: CO
- xml_url: http://weather.gov/xml/current_obs/KALS.xml
  name: Alamosa Muni(awos)
  latitude: 37.46
  id: KALS
  longitude: -105.87
  state: CO
- xml_url: http://weather.gov/xml/current_obs/KAPA.xml
  name: Denver/Centennial
  latitude: 39.57
  id: KAPA
  longitude: -104.85
  state: CO
- xml_url: http://weather.gov/xml/current_obs/KASE.xml
  name: Aspen/Sardy Field
  latitude: 39.22
  id: KASE
  longitude: -106.87
  state: CO
- xml_url: http://weather.gov/xml/current_obs/KBJC.xml
  name: Broomfield/Jeffco
  latitude: 39.91
  id: KBJC
  longitude: -105.12
  state: CO
- xml_url: http://weather.gov/xml/current_obs/KBKF.xml
  name: Buckley AFB/Aurora
  latitude: 39.73
  id: KBKF
  longitude: -104.75
  state: CO
- xml_url: http://weather.gov/xml/current_obs/KCAG.xml
  name: Craig-Moffat(amos)
  latitude: 40.51
  id: KCAG
  longitude: -107.53
  state: CO
- xml_url: http://weather.gov/xml/current_obs/KCCU.xml
  name: Copper Mountain (12,400 feet)
  latitude: 39.475
  id: KCCU
  longitude: -106.153
  state: CO
- xml_url: http://weather.gov/xml/current_obs/KCEZ.xml
  name: Cortez/Montezuma Co
  latitude: 37.3
  id: KCEZ
  longitude: -108.63
  state: CO
- xml_url: http://weather.gov/xml/current_obs/KCOS.xml
  name: Colorado Springs
  latitude: 38.83
  id: KCOS
  longitude: -104.72
  state: CO
- xml_url: http://weather.gov/xml/current_obs/KCPW.xml
  name: Wolf Creek Pass (11,760 feet)
  latitude: 37.464
  id: KCPW
  longitude: -106.804
  state: CO
- xml_url: http://weather.gov/xml/current_obs/KDEN.xml
  name: Denver Intnl Arpt
  latitude: 39.87
  id: KDEN
  longitude: -104.67
  state: CO
- xml_url: http://weather.gov/xml/current_obs/KDRO.xml
  name: Durango/La Plata Co
  latitude: 37.16
  id: KDRO
  longitude: -107.75
  state: CO
- xml_url: http://weather.gov/xml/current_obs/KEEO.xml
  name: Meeker
  latitude: 40.04
  id: KEEO
  longitude: -107.89
  state: CO
- xml_url: http://weather.gov/xml/current_obs/KEGE.xml
  name: Eagle Co. Regional
  latitude: 39.66
  id: KEGE
  longitude: -106.92
  state: CO
- xml_url: http://weather.gov/xml/current_obs/KFCS.xml
  name: Fort Carson/Butts
  latitude: 38.69
  id: KFCS
  longitude: -104.77
  state: CO
- xml_url: http://weather.gov/xml/current_obs/KFNL.xml
  name: Fort Collins (awos)
  latitude: 40.46
  id: KFNL
  longitude: -105.01
  state: CO
- xml_url: http://weather.gov/xml/current_obs/KFTG.xml
  name: Front Range Airport
  latitude: 39.785
  id: KFTG
  longitude: -104.543
  state: CO
- xml_url: http://weather.gov/xml/current_obs/KGJT.xml
  name: Grand Junction
  latitude: 39.12
  id: KGJT
  longitude: -108.53
  state: CO
- xml_url: http://weather.gov/xml/current_obs/KGUC.xml
  name: Gunnison Co. (awos)
  latitude: 38.55
  id: KGUC
  longitude: -106.92
  state: CO
- xml_url: http://weather.gov/xml/current_obs/KGXY.xml
  name: Greeley/Weld (awos)
  latitude: 40.43
  id: KGXY
  longitude: -104.63
  state: CO
- xml_url: http://weather.gov/xml/current_obs/KHDN.xml
  name: Hayden/Yampa (awos)
  latitude: 40.51
  id: KHDN
  longitude: -107.25
  state: CO
- xml_url: http://weather.gov/xml/current_obs/KITR.xml
  name: Burlington
  latitude: 39.24
  id: KITR
  longitude: -102.29
  state: CO
- xml_url: http://weather.gov/xml/current_obs/KLAA.xml
  name: Lamar
  latitude: 38.07
  id: KLAA
  longitude: -102.68
  state: CO
- xml_url: http://weather.gov/xml/current_obs/KLHX.xml
  name: La Junta Municipal
  latitude: 38.05
  id: KLHX
  longitude: -103.52
  state: CO
- xml_url: http://weather.gov/xml/current_obs/KLIC.xml
  name: Limon Municipal
  latitude: 39.26
  id: KLIC
  longitude: -103.66
  state: CO
- xml_url: http://weather.gov/xml/current_obs/KLXV.xml
  name: Leadville/Lake Co.
  latitude: 39.22
  id: KLXV
  longitude: -106.32
  state: CO
- xml_url: http://weather.gov/xml/current_obs/KMNH.xml
  name: Elbert Mountain
  latitude: 39.219
  id: KMNH
  longitude: -104.641
  state: CO
- xml_url: http://weather.gov/xml/current_obs/KMTJ.xml
  name: Montrose Co. Arpt
  latitude: 38.51
  id: KMTJ
  longitude: -107.88
  state: CO
- xml_url: http://weather.gov/xml/current_obs/KMYP.xml
  name: Monarch Pass (12,030 feet)
  latitude: 38.497
  id: KMYP
  longitude: -106.32
  state: CO
- xml_url: http://weather.gov/xml/current_obs/KPUB.xml
  name: Pueblo Memorial(aw)
  latitude: 38.29
  id: KPUB
  longitude: -104.52
  state: CO
- xml_url: http://weather.gov/xml/current_obs/KRIL.xml
  name: Rifle/Garfield Rgnl
  latitude: 39.54
  id: KRIL
  longitude: -107.72
  state: CO
- xml_url: http://weather.gov/xml/current_obs/KSBS.xml
  name: Steamboat Springs
  latitude: 40.48
  id: KSBS
  longitude: -106.82
  state: CO
- xml_url: http://weather.gov/xml/current_obs/KSPD.xml
  name: Springfield/Comanche Natl Grass
  latitude: 37.28
  id: KSPD
  longitude: -102.61
  state: CO
- xml_url: http://weather.gov/xml/current_obs/KTAD.xml
  name: Trinidad/Animas Co.
  latitude: 37.26
  id: KTAD
  longitude: -104.33
  state: CO
- xml_url: http://weather.gov/xml/current_obs/KTEX.xml
  name: Telluride Regional
  latitude: 37.94
  id: KTEX
  longitude: -107.77
  state: CO
- xml_url: http://weather.gov/xml/current_obs/KVTP.xml
  name: South La Veta Pass (10,216 feet)
  latitude: 37.512
  id: KVTP
  longitude: -105.171
  state: CO
- xml_url: http://weather.gov/xml/current_obs/KCRV.xml
  name: Corona Pass (11,608 feet)
  latitude: 40.0503
  id: KCRV
  longitude: -105.584
  state: CO
- xml_url: http://weather.gov/xml/current_obs/KBDL.xml
  name: Windsor Locks, Bradley International Airport
  latitude: 41.94
  id: KBDL
  longitude: -72.68
  state: CT
- xml_url: http://weather.gov/xml/current_obs/KBDR.xml
  name: Bridgeport/Igor|Sikorsky Memorial
  latitude: 41.18
  id: KBDR
  longitude: -73.13
  state: CT
- xml_url: http://weather.gov/xml/current_obs/KDXR.xml
  name: Danbury Municipal Airport
  latitude: 41.37
  id: KDXR
  longitude: -73.48
  state: CT
- xml_url: http://weather.gov/xml/current_obs/KGON.xml
  name: Groton / New London Airport
  latitude: 41.33
  id: KGON
  longitude: -72.05
  state: CT
- xml_url: http://weather.gov/xml/current_obs/KHFD.xml
  name: Hartford-Brainard Airport
  latitude: 41.73
  id: KHFD
  longitude: -72.65
  state: CT
- xml_url: http://weather.gov/xml/current_obs/KHVN.xml
  name: New Haven/Tweed
  latitude: 41.28
  id: KHVN
  longitude: -72.88
  state: CT
- xml_url: http://weather.gov/xml/current_obs/KIJD.xml
  name: Willimantic, Windham Airport
  latitude: 41.75
  id: KIJD
  longitude: -72.18
  state: CT
- xml_url: http://weather.gov/xml/current_obs/KMMK.xml
  name: Meriden Markham Municipal Airport
  latitude: 41.51
  id: KMMK
  longitude: -72.83
  state: CT
- xml_url: http://weather.gov/xml/current_obs/KOXC.xml
  name: Oxford Automatic Weather Observing / Reporting Sys
  latitude: 41.41
  id: KOXC
  longitude: -73.1
  state: CT
- xml_url: http://weather.gov/xml/current_obs/KSNC.xml
  name: Chester
  latitude: 41.3839
  id: KSNC
  longitude: -72.5058
  state: CT
- xml_url: http://weather.gov/xml/current_obs/KDOV.xml
  name: Dover Air Force Base
  latitude: 39.14
  id: KDOV
  longitude: -75.47
  state: DE
- xml_url: http://weather.gov/xml/current_obs/KGED.xml
  name: Georgetown, Sussex County Airport
  latitude: 38.7
  id: KGED
  longitude: -75.36
  state: DE
- xml_url: http://weather.gov/xml/current_obs/KILG.xml
  name: Wilmington, New Castle County Airport
  latitude: 39.68
  id: KILG
  longitude: -75.6
  state: DE
- xml_url: http://weather.gov/xml/current_obs/TDCF.xml
  name: Canefield Airport
  latitude: 15.533
  id: TDCF
  longitude: -61.4
  state: DM
- xml_url: http://weather.gov/xml/current_obs/NFFN.xml
  name: Nandi
  latitude: -17.75
  id: NFFN
  longitude: 177.45
  state: FJ
- xml_url: http://weather.gov/xml/current_obs/NFNA.xml
  name: Nausori
  latitude: -18.05
  id: NFNA
  longitude: 178.567
  state: FJ
- xml_url: http://weather.gov/xml/current_obs/KCEW.xml
  name: Crestview, Sikes Airport
  latitude: 30.79
  id: KCEW
  longitude: -86.52
  state: FL
- xml_url: http://weather.gov/xml/current_obs/KDTS.xml
  name: Destin, Ft. Walton Beach Airport
  latitude: 30.4
  id: KDTS
  longitude: -86.47
  state: FL
- xml_url: http://weather.gov/xml/current_obs/KMAI.xml
  name: Marianna Municipal Airport
  latitude: 30.8
  id: KMAI
  longitude: -85.21
  state: FL
- xml_url: http://weather.gov/xml/current_obs/KPAM.xml
  name: Tyndall Air Force Base
  latitude: 30.07
  id: KPAM
  longitude: -85.59
  state: FL
- xml_url: http://weather.gov/xml/current_obs/KPFN.xml
  name: Panama City-Bay County Intl Airport
  latitude: 30.2
  id: KPFN
  longitude: -85.68
  state: FL
- xml_url: http://weather.gov/xml/current_obs/K0J4.xml
  name: Florala Municipal Airport
  latitude: 31.033
  id: K0J4
  longitude: -86.317
  state: FL
- xml_url: http://weather.gov/xml/current_obs/K40J.xml
  name: Perry-Foley Airport
  latitude: 30.07
  id: K40J
  longitude: -83.57
  state: FL
- xml_url: http://weather.gov/xml/current_obs/KAAF.xml
  name: Apalachicola
  latitude: 29.728
  id: KAAF
  longitude: -85.027
  state: FL
- xml_url: http://weather.gov/xml/current_obs/KAMX.xml
  name: Miami Nexrad
  latitude: 25.617
  id: KAMX
  longitude: -80.417
  state: FL
- xml_url: http://weather.gov/xml/current_obs/KAPF.xml
  name: Naples Municipal
  latitude: 26.15
  id: KAPF
  longitude: -81.77
  state: FL
- xml_url: http://weather.gov/xml/current_obs/KBCT.xml
  name: Boca Raton Airport
  latitude: 26.38
  id: KBCT
  longitude: -80.1
  state: FL
- xml_url: http://weather.gov/xml/current_obs/KBKV.xml
  name: Brooksville, Hernando County Airport
  latitude: 28.47
  id: KBKV
  longitude: -82.45
  state: FL
- xml_url: http://weather.gov/xml/current_obs/KBOW.xml
  name: Bartow Municipal
  latitude: 27.95
  id: KBOW
  longitude: -81.78
  state: FL
- xml_url: http://weather.gov/xml/current_obs/KCOF.xml
  name: Cocoa Beach / Patrick Air Force Base
  latitude: 28.23
  id: KCOF
  longitude: -80.6
  state: FL
- xml_url: http://weather.gov/xml/current_obs/KCRG.xml
  name: Jacksonville, Craig Municipal Airport
  latitude: 30.33
  id: KCRG
  longitude: -81.52
  state: FL
- xml_url: http://weather.gov/xml/current_obs/KCTY.xml
  name: Cross City Airport
  latitude: 29.64
  id: KCTY
  longitude: -83.1
  state: FL
- xml_url: http://weather.gov/xml/current_obs/KDAB.xml
  name: Daytona Beach International Airport
  latitude: 29.18
  id: KDAB
  longitude: -81.05
  state: FL
- xml_url: http://weather.gov/xml/current_obs/KEVB.xml
  name: New Smyrna Beach Municipal Airport
  latitude: 29.05
  id: KEVB
  longitude: -80.95
  state: FL
- xml_url: http://weather.gov/xml/current_obs/KEYW.xml
  name: Key West Airport
  latitude: 24.55
  id: KEYW
  longitude: -81.75
  state: FL
- xml_url: http://weather.gov/xml/current_obs/KFLL.xml
  name: Fort Lauderdale / Hollywood Intl Airport
  latitude: 26.07
  id: KFLL
  longitude: -80.15
  state: FL
- xml_url: http://weather.gov/xml/current_obs/KFMY.xml
  name: Fort Myers, Page Field
  latitude: 26.58
  id: KFMY
  longitude: -81.87
  state: FL
- xml_url: http://weather.gov/xml/current_obs/KFPR.xml
  name: Fort Pierce, St. Lucie County Intl Airport
  latitude: 27.5
  id: KFPR
  longitude: -80.37
  state: FL
- xml_url: http://weather.gov/xml/current_obs/KFXE.xml
  name: Fort Lauderdale Executive Airport
  latitude: 26.2
  id: KFXE
  longitude: -80.17
  state: FL
- xml_url: http://weather.gov/xml/current_obs/KGIF.xml
  name: Gilbert Field
  latitude: 28.05
  id: KGIF
  longitude: -81.75
  state: FL
- xml_url: http://weather.gov/xml/current_obs/KGNV.xml
  name: Gainesville Regional Airport
  latitude: 29.68
  id: KGNV
  longitude: -82.27
  state: FL
- xml_url: http://weather.gov/xml/current_obs/KHRT.xml
  name: Hurlburt Field
  latitude: 30.43
  id: KHRT
  longitude: -86.68
  state: FL
- xml_url: http://weather.gov/xml/current_obs/KHST.xml
  name: Homestead Air Force Base
  latitude: 25.48
  id: KHST
  longitude: -80.38
  state: FL
- xml_url: http://weather.gov/xml/current_obs/KHWO.xml
  name: Hollywood, North Perry Airport
  latitude: 26.0
  id: KHWO
  longitude: -80.24
  state: FL
- xml_url: http://weather.gov/xml/current_obs/KISM.xml
  name: Orlando, Kissimmee Municipal Airport
  latitude: 28.29
  id: KISM
  longitude: -81.437
  state: FL
- xml_url: http://weather.gov/xml/current_obs/KJAX.xml
  name: Jacksonville International Airport
  latitude: 30.43
  id: KJAX
  longitude: -81.7
  state: FL
- xml_url: http://weather.gov/xml/current_obs/KLAL.xml
  name: Lakeland Regional
  latitude: 28.04
  id: KLAL
  longitude: -81.95
  state: FL
- xml_url: http://weather.gov/xml/current_obs/KLEE.xml
  name: Leesburg International Airport
  latitude: 28.82
  id: KLEE
  longitude: -81.81
  state: FL
- xml_url: http://weather.gov/xml/current_obs/KMCF.xml
  name: Macdill Air Force Base, Fl.
  latitude: 27.86
  id: KMCF
  longitude: -82.52
  state: FL
- xml_url: http://weather.gov/xml/current_obs/KMCO.xml
  name: Orlando International Airport
  latitude: 28.43
  id: KMCO
  longitude: -81.32
  state: FL
- xml_url: http://weather.gov/xml/current_obs/KMIA.xml
  name: Miami International Airport
  latitude: 25.82
  id: KMIA
  longitude: -80.28
  state: FL
- xml_url: http://weather.gov/xml/current_obs/KMLB.xml
  name: Melbourne International Airport
  latitude: 28.11
  id: KMLB
  longitude: -80.63
  state: FL
- xml_url: http://weather.gov/xml/current_obs/KMTH.xml
  name: Marathon Airport
  latitude: 24.74
  id: KMTH
  longitude: -81.05
  state: FL
- xml_url: http://weather.gov/xml/current_obs/KNIP.xml
  name: Jacksonville, Naval Air Station
  latitude: 30.23
  id: KNIP
  longitude: -81.68
  state: FL
- xml_url: http://weather.gov/xml/current_obs/KNPA.xml
  name: Pensacola, Naval Air Station
  latitude: 30.36
  id: KNPA
  longitude: -87.32
  state: FL
- xml_url: http://weather.gov/xml/current_obs/KNQX.xml
  name: Boca Chica Naval Air Station
  latitude: 24.57
  id: KNQX
  longitude: -81.68
  state: FL
- xml_url: http://weather.gov/xml/current_obs/KNRB.xml
  name: Mayport Naval Station
  latitude: 30.4
  id: KNRB
  longitude: -81.42
  state: FL
- xml_url: http://weather.gov/xml/current_obs/KNSE.xml
  name: Milton, Whiting Field North
  latitude: 30.72
  id: KNSE
  longitude: -87.02
  state: FL
- xml_url: http://weather.gov/xml/current_obs/KOCF.xml
  name: Ocala Municipal Automatic Weather Observing
  latitude: 29.18
  id: KOCF
  longitude: -82.22
  state: FL
- xml_url: http://weather.gov/xml/current_obs/KOMN.xml
  name: Ormond Beach Municipal Airport
  latitude: 29.3
  id: KOMN
  longitude: -81.1
  state: FL
- xml_url: http://weather.gov/xml/current_obs/KOPF.xml
  name: Miami, Opa Locka Airport
  latitude: 25.91
  id: KOPF
  longitude: -80.28
  state: FL
- xml_url: http://weather.gov/xml/current_obs/KORL.xml
  name: Orlando Executive Airport
  latitude: 28.55
  id: KORL
  longitude: -81.33
  state: FL
- xml_url: http://weather.gov/xml/current_obs/KPBI.xml
  name: West Palm Beach, Palm Beach International Airport
  latitude: 26.68
  id: KPBI
  longitude: -80.12
  state: FL
- xml_url: http://weather.gov/xml/current_obs/KPGD.xml
  name: Punta Gorda, Charlotte County Airport
  latitude: 26.92
  id: KPGD
  longitude: -81.99
  state: FL
- xml_url: http://weather.gov/xml/current_obs/KPIE.xml
  name: St. Petersburg / Clea
  latitude: 27.91
  id: KPIE
  longitude: -82.69
  state: FL
- xml_url: http://weather.gov/xml/current_obs/KPMP.xml
  name: Pompano Beach Airpark
  latitude: 26.25
  id: KPMP
  longitude: -80.11
  state: FL
- xml_url: http://weather.gov/xml/current_obs/KPNS.xml
  name: Pensacola Regional Airport
  latitude: 30.47
  id: KPNS
  longitude: -87.2
  state: FL
- xml_url: http://weather.gov/xml/current_obs/KRSW.xml
  name: Fort Myers, SW Florida Intl Airport
  latitude: 26.54
  id: KRSW
  longitude: -81.76
  state: FL
- xml_url: http://weather.gov/xml/current_obs/KSFB.xml
  name: Orlando / Sanford Airport
  latitude: 28.78
  id: KSFB
  longitude: -81.24
  state: FL
- xml_url: http://weather.gov/xml/current_obs/KSGJ.xml
  name: St. Augustine Airport
  latitude: 29.97
  id: KSGJ
  longitude: -81.33
  state: FL
- xml_url: http://weather.gov/xml/current_obs/KSPG.xml
  name: St. Petersburg, Whitted Airport
  latitude: 27.77
  id: KSPG
  longitude: -82.63
  state: FL
- xml_url: http://weather.gov/xml/current_obs/KSRQ.xml
  name: Sarasota-Bradenton Intl Airport
  latitude: 27.4
  id: KSRQ
  longitude: -82.55
  state: FL
- xml_url: http://weather.gov/xml/current_obs/KSUA.xml
  name: Stuart, Witham Field Airport
  latitude: 27.182
  id: KSUA
  longitude: -80.221
  state: FL
- xml_url: http://weather.gov/xml/current_obs/KTIX.xml
  name: Titusville
  latitude: 28.52
  id: KTIX
  longitude: -80.8
  state: FL
- xml_url: http://weather.gov/xml/current_obs/KTLH.xml
  name: Tallahassee Regional Airport
  latitude: 30.4
  id: KTLH
  longitude: -84.35
  state: FL
- xml_url: http://weather.gov/xml/current_obs/KTMB.xml
  name: Miami, Kendall-Tamiami Executive Airport
  latitude: 25.65
  id: KTMB
  longitude: -80.43
  state: FL
- xml_url: http://weather.gov/xml/current_obs/KTPA.xml
  name: Tampa International Airport
  latitude: 27.97
  id: KTPA
  longitude: -82.53
  state: FL
- xml_url: http://weather.gov/xml/current_obs/KTTS.xml
  name: NASA Shuttle Landing Facility
  latitude: 28.62
  id: KTTS
  longitude: -80.72
  state: FL
- xml_url: http://weather.gov/xml/current_obs/KVDF.xml
  name: Vandenberg Airport
  latitude: 28.01
  id: KVDF
  longitude: -82.35
  state: FL
- xml_url: http://weather.gov/xml/current_obs/KVPS.xml
  name: Valparaiso / Eglin Air Force Base
  latitude: 30.48
  id: KVPS
  longitude: -86.53
  state: FL
- xml_url: http://weather.gov/xml/current_obs/KVQQ.xml
  name: Jacksonville, Cecil Field Airport
  latitude: 30.217
  id: KVQQ
  longitude: -81.876
  state: FL
- xml_url: http://weather.gov/xml/current_obs/KVRB.xml
  name: Vero Beach Municipal Airport
  latitude: 27.65
  id: KVRB
  longitude: -80.42
  state: FL
- xml_url: http://weather.gov/xml/current_obs/KVVG.xml
  name: The Villages
  latitude: 28.962
  id: KVVG
  longitude: -81.97
  state: FL
- xml_url: http://weather.gov/xml/current_obs/KOBE.xml
  name: Okeechobee County Airport
  latitude: 27.26
  id: KOBE
  longitude: -80.85
  state: FL
- xml_url: http://weather.gov/xml/current_obs/KTPF.xml
  name: Peter O Knight Airport
  latitude: 27.9156
  id: KTPF
  longitude: -82.4493
  state: FL
- xml_url: http://weather.gov/xml/current_obs/KPCM.xml
  name: Plant City Airport
  latitude: 28.0002
  id: KPCM
  longitude: -82.1642
  state: FL
- xml_url: http://weather.gov/xml/current_obs/PTPN.xml
  name: Pohnpei Intl Airport
  latitude: 6.97
  id: PTPN
  longitude: 158.22
  state: FM
- xml_url: http://weather.gov/xml/current_obs/PTSA.xml
  name: Kosrae Island Airport
  latitude: 5.333
  id: PTSA
  longitude: 163.033
  state: FM
- xml_url: http://weather.gov/xml/current_obs/PTTP.xml
  name: Pohnpei
  latitude: 6.95
  id: PTTP
  longitude: 158.25
  state: FM
- xml_url: http://weather.gov/xml/current_obs/PTKK.xml
  name: Chuuk Intl Weno Is
  latitude: 7.47
  id: PTKK
  longitude: 151.85
  state: FM
- xml_url: http://weather.gov/xml/current_obs/PTYA.xml
  name: Yap Intl Airport
  latitude: 9.483
  id: PTYA
  longitude: 138.083
  state: FM
- xml_url: http://weather.gov/xml/current_obs/K11J.xml
  name: Early County Airport
  latitude: 31.397
  id: K11J
  longitude: -84.895
  state: GA
- xml_url: http://weather.gov/xml/current_obs/K27A.xml
  name: Elbert Co. Airport-Patz Field
  latitude: 34.095
  id: K27A
  longitude: -82.816
  state: GA
- xml_url: http://weather.gov/xml/current_obs/K3J7.xml
  name: Greene County Regional Airport
  latitude: 33.6
  id: K3J7
  longitude: -83.133
  state: GA
- xml_url: http://weather.gov/xml/current_obs/K47A.xml
  name: Cherokee County Airport
  latitude: 34.3
  id: K47A
  longitude: -84.417
  state: GA
- xml_url: http://weather.gov/xml/current_obs/KABY.xml
  name: Albany, Southwest Georgia Regional Airport
  latitude: 31.54
  id: KABY
  longitude: -84.18
  state: GA
- xml_url: http://weather.gov/xml/current_obs/KAGS.xml
  name: Augusta, Bush Field
  latitude: 33.38
  id: KAGS
  longitude: -81.97
  state: GA
- xml_url: http://weather.gov/xml/current_obs/KAHN.xml
  name: Athens Airport
  latitude: 33.96
  id: KAHN
  longitude: -83.32
  state: GA
- xml_url: http://weather.gov/xml/current_obs/KAMG.xml
  name: Alma, Bacon County Airport
  latitude: 31.54
  id: KAMG
  longitude: -82.5
  state: GA
- xml_url: http://weather.gov/xml/current_obs/KATL.xml
  name: Hartsfield-Jackson/Atlanta International Airport
  latitude: 33.66
  id: KATL
  longitude: -84.42
  state: GA
- xml_url: http://weather.gov/xml/current_obs/KAYS.xml
  name: Waycross / Ware County
  latitude: 31.25
  id: KAYS
  longitude: -82.4
  state: GA
- xml_url: http://weather.gov/xml/current_obs/KBGE.xml
  name: Bainbridge
  latitude: 30.97
  id: KBGE
  longitude: -84.63
  state: GA
- xml_url: http://weather.gov/xml/current_obs/KBQK.xml
  name: Brunswick / Glynco
  latitude: 31.15
  id: KBQK
  longitude: -81.38
  state: GA
- xml_url: http://weather.gov/xml/current_obs/KCCO.xml
  name: Newnan Coweta County Airport
  latitude: 33.31
  id: KCCO
  longitude: -84.77
  state: GA
- xml_url: http://weather.gov/xml/current_obs/KCSG.xml
  name: Columbus Metropolitan Airport
  latitude: 32.53
  id: KCSG
  longitude: -84.93
  state: GA
- xml_url: http://weather.gov/xml/current_obs/KDBN.xml
  name: W H `Bud` Barron Airport
  latitude: 32.567
  id: KDBN
  longitude: -82.983
  state: GA
- xml_url: http://weather.gov/xml/current_obs/KDNL.xml
  name: Augusta, Daniel Field
  latitude: 33.47
  id: KDNL
  longitude: -82.03
  state: GA
- xml_url: http://weather.gov/xml/current_obs/KDNN.xml
  name: Dalton Municipal Airport
  latitude: 34.72
  id: KDNN
  longitude: -84.87
  state: GA
- xml_url: http://weather.gov/xml/current_obs/KDQH.xml
  name: Douglas Municipal Airport
  latitude: 31.477
  id: KDQH
  longitude: -82.861
  state: GA
- xml_url: http://weather.gov/xml/current_obs/KFFC.xml
  name: Atlanta, Peachtree City-Falcon Field
  latitude: 33.35
  id: KFFC
  longitude: -84.56
  state: GA
- xml_url: http://weather.gov/xml/current_obs/KFTY.xml
  name: Atlanta, Fulton County Airport-Brown Field
  latitude: 33.78
  id: KFTY
  longitude: -84.52
  state: GA
- xml_url: http://weather.gov/xml/current_obs/KGVL.xml
  name: Gainesville, Gilmer Memorial Airport
  latitude: 34.26
  id: KGVL
  longitude: -83.83
  state: GA
- xml_url: http://weather.gov/xml/current_obs/KHQU.xml
  name: Thomson-McDuffie County Airport
  latitude: 33.53
  id: KHQU
  longitude: -82.516
  state: GA
- xml_url: http://weather.gov/xml/current_obs/KIIY.xml
  name: Washington-Wilkes County Airport
  latitude: 33.78
  id: KIIY
  longitude: -82.82
  state: GA
- xml_url: http://weather.gov/xml/current_obs/KJYL.xml
  name: Plantation Airpark
  latitude: 32.645
  id: KJYL
  longitude: -81.596
  state: GA
- xml_url: http://weather.gov/xml/current_obs/KLGC.xml
  name: La Grange-Callawy Airport
  latitude: 33.009
  id: KLGC
  longitude: -85.073
  state: GA
- xml_url: http://weather.gov/xml/current_obs/KLHW.xml
  name: Ft. Stewart
  latitude: 31.88
  id: KLHW
  longitude: -81.57
  state: GA
- xml_url: http://weather.gov/xml/current_obs/KLSF.xml
  name: Fort Benning
  latitude: 32.34
  id: KLSF
  longitude: -85.0
  state: GA
- xml_url: http://weather.gov/xml/current_obs/KLZU.xml
  name: Lawrenceville, Gwinnett Co-Briscoe Field Airport
  latitude: 33.978
  id: KLZU
  longitude: -83.962
  state: GA
- xml_url: http://weather.gov/xml/current_obs/KMCN.xml
  name: Macon, Middle Georgia Regional Airport
  latitude: 32.71
  id: KMCN
  longitude: -83.65
  state: GA
- xml_url: http://weather.gov/xml/current_obs/KMGE.xml
  name: Marietta / Dobbins Air Force Base
  latitude: 33.93
  id: KMGE
  longitude: -84.52
  state: GA
- xml_url: http://weather.gov/xml/current_obs/KMGR.xml
  name: Moultrie Municipal Airport
  latitude: 31.085
  id: KMGR
  longitude: -83.803
  state: GA
- xml_url: http://weather.gov/xml/current_obs/KMLJ.xml
  name: Baldwin County Airport
  latitude: 33.15
  id: KMLJ
  longitude: -83.233
  state: GA
- xml_url: http://weather.gov/xml/current_obs/KOPN.xml
  name: Thomaston-Upson County Airport
  latitude: 32.955
  id: KOPN
  longitude: -84.263
  state: GA
- xml_url: http://weather.gov/xml/current_obs/KPDK.xml
  name: Atlanta, De Kalb-Peachtree Airport
  latitude: 33.88
  id: KPDK
  longitude: -84.3
  state: GA
- xml_url: http://weather.gov/xml/current_obs/KRMG.xml
  name: Rome, R. B. Russell Airport
  latitude: 34.36
  id: KRMG
  longitude: -85.17
  state: GA
- xml_url: http://weather.gov/xml/current_obs/KRYY.xml
  name: Marietta, Cobb County-McCollum Field Airport
  latitude: 34.013
  id: KRYY
  longitude: -84.599
  state: GA
- xml_url: http://weather.gov/xml/current_obs/KSAV.xml
  name: Savannah International Airport
  latitude: 32.14
  id: KSAV
  longitude: -81.2
  state: GA
- xml_url: http://weather.gov/xml/current_obs/KSSI.xml
  name: Brunswick/Malcom-McKinnon
  latitude: 31.15
  id: KSSI
  longitude: -81.38
  state: GA
- xml_url: http://weather.gov/xml/current_obs/KSVN.xml
  name: Hunter U. S. Army Airfield
  latitude: 32.03
  id: KSVN
  longitude: -81.15
  state: GA
- xml_url: http://weather.gov/xml/current_obs/KTBR.xml
  name: Statesboro-Bulloch County Airport
  latitude: 32.482
  id: KTBR
  longitude: -81.737
  state: GA
- xml_url: http://weather.gov/xml/current_obs/KVAD.xml
  name: Moody Air Force Base
  latitude: 30.97
  id: KVAD
  longitude: -83.2
  state: GA
- xml_url: http://weather.gov/xml/current_obs/KVDI.xml
  name: Vidalia Municipal Airport
  latitude: 32.193
  id: KVDI
  longitude: -82.372
  state: GA
- xml_url: http://weather.gov/xml/current_obs/KVLD.xml
  name: Valdosta Regional Airport
  latitude: 30.79
  id: KVLD
  longitude: -83.28
  state: GA
- xml_url: http://weather.gov/xml/current_obs/KVPC.xml
  name: Cartersville Airport
  latitude: 34.13
  id: KVPC
  longitude: -84.85
  state: GA
- xml_url: http://weather.gov/xml/current_obs/KWDR.xml
  name: Winder-Barrow Airport
  latitude: 33.982
  id: KWDR
  longitude: -83.668
  state: GA
- xml_url: http://weather.gov/xml/current_obs/KWRB.xml
  name: Robins Air Force Base
  latitude: 32.64
  id: KWRB
  longitude: -83.6
  state: GA
- xml_url: http://weather.gov/xml/current_obs/KBIJ.xml
  name: Early County Airport
  latitude: 31.3969
  id: KBIJ
  longitude: -84.895
  state: GA
- xml_url: http://weather.gov/xml/current_obs/KDZJ.xml
  name: Blairsville Airport
  latitude: 34.8544
  id: KDZJ
  longitude: -83.9973
  state: GA
- xml_url: http://weather.gov/xml/current_obs/TGPY.xml
  name: Point Salines Airport
  latitude: 12.0
  id: TGPY
  longitude: -61.783
  state: GD
- xml_url: http://weather.gov/xml/current_obs/PGRO.xml
  name: Rota/Intl
  latitude: 14.18
  id: PGRO
  longitude: 145.25
  state: GU
- xml_url: http://weather.gov/xml/current_obs/PGSN.xml
  name: Saipan Intl Airport
  latitude: 15.12
  id: PGSN
  longitude: 145.73
  state: GU
- xml_url: http://weather.gov/xml/current_obs/PGUA.xml
  name: Anderson AFB
  latitude: 13.58
  id: PGUA
  longitude: 144.93
  state: GU
- xml_url: http://weather.gov/xml/current_obs/PGUM.xml
  name: Guam International
  latitude: 13.48
  id: PGUM
  longitude: 144.8
  state: GU
- xml_url: http://weather.gov/xml/current_obs/PGWT.xml
  name: West Tinian Tinian Is
  latitude: 14.97
  id: PGWT
  longitude: 145.6
  state: GU
- xml_url: http://weather.gov/xml/current_obs/PHBK.xml
  name: Kekaha / Barking Sand
  latitude: 22.07
  id: PHBK
  longitude: -159.78
  state: HI
- xml_url: http://weather.gov/xml/current_obs/PHHI.xml
  name: Wheeler Army Airfield
  latitude: 21.48
  id: PHHI
  longitude: -158.03
  state: HI
- xml_url: http://weather.gov/xml/current_obs/PHHN.xml
  name: Hana
  latitude: 20.784
  id: PHHN
  longitude: -156.014
  state: HI
- xml_url: http://weather.gov/xml/current_obs/PHJH.xml
  name: Lahaina / West Maui
  latitude: 21.02
  id: PHJH
  longitude: -156.63
  state: HI
- xml_url: http://weather.gov/xml/current_obs/PHJR.xml
  name: Kalaeloa Airport
  latitude: 21.32
  id: PHJR
  longitude: -158.07
  state: HI
- xml_url: http://weather.gov/xml/current_obs/PHKO.xml
  name: Kailua / Kona, Keahole Airport
  latitude: 19.65
  id: PHKO
  longitude: -156.0
  state: HI
- xml_url: http://weather.gov/xml/current_obs/PHLI.xml
  name: Lihue Airport
  latitude: 21.98
  id: PHLI
  longitude: -159.35
  state: HI
- xml_url: http://weather.gov/xml/current_obs/PHMK.xml
  name: Molokai Airport
  latitude: 21.15
  id: PHMK
  longitude: -157.1
  state: HI
- xml_url: http://weather.gov/xml/current_obs/PHNG.xml
  name: Kaneohe Bay MCAF
  latitude: 21.45
  id: PHNG
  longitude: -157.783
  state: HI
- xml_url: http://weather.gov/xml/current_obs/PHNL.xml
  name: Honolulu International Airport
  latitude: 21.35
  id: PHNL
  longitude: -157.93
  state: HI
- xml_url: http://weather.gov/xml/current_obs/PHNY.xml
  name: Lanai City Airport
  latitude: 20.78
  id: PHNY
  longitude: -156.95
  state: HI
- xml_url: http://weather.gov/xml/current_obs/PHOG.xml
  name: Kahului Airport
  latitude: 20.9
  id: PHOG
  longitude: -156.43
  state: HI
- xml_url: http://weather.gov/xml/current_obs/PHSF.xml
  name: Bradshaw Army Air Field
  latitude: 19.78
  id: PHSF
  longitude: -155.55
  state: HI
- xml_url: http://weather.gov/xml/current_obs/PHTO.xml
  name: Hilo International Airport
  latitude: 19.72
  id: PHTO
  longitude: -155.07
  state: HI
- xml_url: http://weather.gov/xml/current_obs/PWAK.xml
  name: Wake Island Airfield
  latitude: 19.283
  id: PWAK
  longitude: 166.5
  state: HI
- xml_url: http://weather.gov/xml/current_obs/PMDY.xml
  name: Midway NAF
  latitude: 28.22
  id: PMDY
  longitude: -177.37
  state: HI
- xml_url: http://weather.gov/xml/current_obs/KGGI.xml
  name: Grinnell Regional Airport
  latitude: 41.7092
  id: KGGI
  longitude: -92.7349
  state: IA
- xml_url: http://weather.gov/xml/current_obs/KADU.xml
  name: Audubon County Airport
  latitude: 41.7
  id: KADU
  longitude: -94.92
  state: IA
- xml_url: http://weather.gov/xml/current_obs/KAIO.xml
  name: Atlantic
  latitude: 41.4
  id: KAIO
  longitude: -95.05
  state: IA
- xml_url: http://weather.gov/xml/current_obs/KALO.xml
  name: Waterloo Municipal Airport
  latitude: 42.55
  id: KALO
  longitude: -92.4
  state: IA
- xml_url: http://weather.gov/xml/current_obs/KAMW.xml
  name: Ames Municipal Airport
  latitude: 41.99
  id: KAMW
  longitude: -93.62
  state: IA
- xml_url: http://weather.gov/xml/current_obs/KAWG.xml
  name: Washington
  latitude: 41.28
  id: KAWG
  longitude: -91.67
  state: IA
- xml_url: http://weather.gov/xml/current_obs/KAXA.xml
  name: Algona
  latitude: 43.08
  id: KAXA
  longitude: -94.27
  state: IA
- xml_url: http://weather.gov/xml/current_obs/KBNW.xml
  name: Boone Municipal
  latitude: 42.05
  id: KBNW
  longitude: -93.85
  state: IA
- xml_url: http://weather.gov/xml/current_obs/KBRL.xml
  name: Burlington Regional Airport
  latitude: 40.79
  id: KBRL
  longitude: -91.12
  state: IA
- xml_url: http://weather.gov/xml/current_obs/KCAV.xml
  name: Clarion
  latitude: 42.75
  id: KCAV
  longitude: -93.77
  state: IA
- xml_url: http://weather.gov/xml/current_obs/KCBF.xml
  name: Council Bluffs
  latitude: 41.27
  id: KCBF
  longitude: -95.77
  state: IA
- xml_url: http://weather.gov/xml/current_obs/KCCY.xml
  name: Charles City
  latitude: 43.07
  id: KCCY
  longitude: -92.62
  state: IA
- xml_url: http://weather.gov/xml/current_obs/KCID.xml
  name: Cedar Rapids, The Eastern Iowa Airport
  latitude: 41.89
  id: KCID
  longitude: -91.7
  state: IA
- xml_url: http://weather.gov/xml/current_obs/KCIN.xml
  name: Carroll
  latitude: 42.05
  id: KCIN
  longitude: -94.78
  state: IA
- xml_url: http://weather.gov/xml/current_obs/KCKP.xml
  name: Cherokee Municipal Airport
  latitude: 42.732
  id: KCKP
  longitude: -95.556
  state: IA
- xml_url: http://weather.gov/xml/current_obs/KCNC.xml
  name: Chariton
  latitude: 41.03
  id: KCNC
  longitude: -93.37
  state: IA
- xml_url: http://weather.gov/xml/current_obs/KCSQ.xml
  name: Creston
  latitude: 41.02
  id: KCSQ
  longitude: -94.37
  state: IA
- xml_url: http://weather.gov/xml/current_obs/KCWI.xml
  name: Clinton Municipal Automatic Weather Observing
  latitude: 41.84
  id: KCWI
  longitude: -90.34
  state: IA
- xml_url: http://weather.gov/xml/current_obs/KDBQ.xml
  name: Dubuque Regional Airport
  latitude: 42.41
  id: KDBQ
  longitude: -90.7
  state: IA
- xml_url: http://weather.gov/xml/current_obs/KDEH.xml
  name: Decorah
  latitude: 43.28
  id: KDEH
  longitude: -91.73
  state: IA
- xml_url: http://weather.gov/xml/current_obs/KDNS.xml
  name: Denison
  latitude: 41.98
  id: KDNS
  longitude: -95.38
  state: IA
- xml_url: http://weather.gov/xml/current_obs/KDSM.xml
  name: Des Moines International Airport
  latitude: 41.54
  id: KDSM
  longitude: -93.65
  state: IA
- xml_url: http://weather.gov/xml/current_obs/KDVN.xml
  name: Davenport Municipal Airport
  latitude: 41.62
  id: KDVN
  longitude: -90.58
  state: IA
- xml_url: http://weather.gov/xml/current_obs/KEBS.xml
  name: Webster City
  latitude: 42.43
  id: KEBS
  longitude: -93.87
  state: IA
- xml_url: http://weather.gov/xml/current_obs/KEOK.xml
  name: Keokuk Municipal
  latitude: 40.47
  id: KEOK
  longitude: -91.43
  state: IA
- xml_url: http://weather.gov/xml/current_obs/KEST.xml
  name: Estherville Municipal Airport
  latitude: 43.4
  id: KEST
  longitude: -94.75
  state: IA
- xml_url: http://weather.gov/xml/current_obs/KFFL.xml
  name: Fairfield
  latitude: 41.05
  id: KFFL
  longitude: -91.98
  state: IA
- xml_url: http://weather.gov/xml/current_obs/KFOD.xml
  name: Fort Dodge
  latitude: 42.55
  id: KFOD
  longitude: -94.18
  state: IA
- xml_url: http://weather.gov/xml/current_obs/KFSW.xml
  name: Fort Madison
  latitude: 40.67
  id: KFSW
  longitude: -91.33
  state: IA
- xml_url: http://weather.gov/xml/current_obs/KHNR.xml
  name: Harlan Municipal Airport
  latitude: 41.584
  id: KHNR
  longitude: -95.34
  state: IA
- xml_url: http://weather.gov/xml/current_obs/KICL.xml
  name: Clarinda
  latitude: 40.72
  id: KICL
  longitude: -95.03
  state: IA
- xml_url: http://weather.gov/xml/current_obs/KIIB.xml
  name: Independence Muni Airport
  latitude: 42.454
  id: KIIB
  longitude: -91.948
  state: IA
- xml_url: http://weather.gov/xml/current_obs/KIKV.xml
  name: Ankeny Regional Airport
  latitude: 41.69
  id: KIKV
  longitude: -93.57
  state: IA
- xml_url: http://weather.gov/xml/current_obs/KIOW.xml
  name: Iowa City Municipal Airport
  latitude: 41.633
  id: KIOW
  longitude: -91.543
  state: IA
- xml_url: http://weather.gov/xml/current_obs/KLRJ.xml
  name: Le Mars Municipal Airport
  latitude: 42.78
  id: KLRJ
  longitude: -96.2
  state: IA
- xml_url: http://weather.gov/xml/current_obs/KLWD.xml
  name: Lamoni Municipal Airport
  latitude: 40.631
  id: KLWD
  longitude: -93.901
  state: IA
- xml_url: http://weather.gov/xml/current_obs/KMCW.xml
  name: Mason City Municipal Airport
  latitude: 43.16
  id: KMCW
  longitude: -93.33
  state: IA
- xml_url: http://weather.gov/xml/current_obs/KMIW.xml
  name: Marshalltown Municipal Airport
  latitude: 42.11
  id: KMIW
  longitude: -92.91
  state: IA
- xml_url: http://weather.gov/xml/current_obs/KMPZ.xml
  name: Mount Pleasant Muni Airport
  latitude: 40.95
  id: KMPZ
  longitude: -91.51
  state: IA
- xml_url: http://weather.gov/xml/current_obs/KMUT.xml
  name: Muscatine
  latitude: 41.37
  id: KMUT
  longitude: -91.15
  state: IA
- xml_url: http://weather.gov/xml/current_obs/KMXO.xml
  name: Monticello Municipal
  latitude: 42.23
  id: KMXO
  longitude: -91.17
  state: IA
- xml_url: http://weather.gov/xml/current_obs/KOLZ.xml
  name: Oelwein Municipal Airport
  latitude: 42.68
  id: KOLZ
  longitude: -91.96
  state: IA
- xml_url: http://weather.gov/xml/current_obs/KOOA.xml
  name: Oskaloosa Municipal Airport
  latitude: 41.233
  id: KOOA
  longitude: -92.483
  state: IA
- xml_url: http://weather.gov/xml/current_obs/KORC.xml
  name: Orange City
  latitude: 42.98
  id: KORC
  longitude: -96.07
  state: IA
- xml_url: http://weather.gov/xml/current_obs/KOTM.xml
  name: Ottumwa Industrial Airport
  latitude: 41.11
  id: KOTM
  longitude: -92.45
  state: IA
- xml_url: http://weather.gov/xml/current_obs/KOXV.xml
  name: Knoxville
  latitude: 41.3
  id: KOXV
  longitude: -93.12
  state: IA
- xml_url: http://weather.gov/xml/current_obs/KPEA.xml
  name: Pella Muni Airport
  latitude: 41.4
  id: KPEA
  longitude: -92.95
  state: IA
- xml_url: http://weather.gov/xml/current_obs/KRDK.xml
  name: Red Oak
  latitude: 41.02
  id: KRDK
  longitude: -95.27
  state: IA
- xml_url: http://weather.gov/xml/current_obs/KSDA.xml
  name: Shenandoah Municipal
  latitude: 40.75
  id: KSDA
  longitude: -95.42
  state: IA
- xml_url: http://weather.gov/xml/current_obs/KSHL.xml
  name: Sheldon
  latitude: 43.22
  id: KSHL
  longitude: -95.83
  state: IA
- xml_url: http://weather.gov/xml/current_obs/KSLB.xml
  name: Storm Lake
  latitude: 42.6
  id: KSLB
  longitude: -95.23
  state: IA
- xml_url: http://weather.gov/xml/current_obs/KSPW.xml
  name: Spencer Municipal Airport
  latitude: 43.17
  id: KSPW
  longitude: -95.21
  state: IA
- xml_url: http://weather.gov/xml/current_obs/KSUX.xml
  name: Sioux Gateway Airport
  latitude: 42.41
  id: KSUX
  longitude: -96.38
  state: IA
- xml_url: http://weather.gov/xml/current_obs/KTNU.xml
  name: Newton Municipal
  latitude: 41.68
  id: KTNU
  longitude: -93.02
  state: IA
- xml_url: http://weather.gov/xml/current_obs/KVTI.xml
  name: Vinton Veterans Mem Airpark Airport
  latitude: 42.219
  id: KVTI
  longitude: -92.026
  state: IA
- xml_url: http://weather.gov/xml/current_obs/KPRO.xml
  name: Perry Municipal Airport
  latitude: 41.828
  id: KPRO
  longitude: -94.1598
  state: IA
- xml_url: http://weather.gov/xml/current_obs/KTVK.xml
  name: Centerville Municipal Airport
  latitude: 40.6839
  id: KTVK
  longitude: -92.901
  state: IA
- xml_url: http://weather.gov/xml/current_obs/KIFA.xml
  name: Iowa Falls Municipal Airport
  latitude: 42.4708
  id: KIFA
  longitude: -93.27
  state: IA
- xml_url: http://weather.gov/xml/current_obs/K77M.xml
  name: Malta
  latitude: 42.3
  id: K77M
  longitude: -113.37
  state: ID
- xml_url: http://weather.gov/xml/current_obs/KBOI.xml
  name: Boise Municipal
  latitude: 43.58
  id: KBOI
  longitude: -116.22
  state: ID
- xml_url: http://weather.gov/xml/current_obs/KBYI.xml
  name: Burley Municipal
  latitude: 42.54
  id: KBYI
  longitude: -113.77
  state: ID
- xml_url: http://weather.gov/xml/current_obs/KEUL.xml
  name: Caldwell
  latitude: 43.64
  id: KEUL
  longitude: -116.64
  state: ID
- xml_url: http://weather.gov/xml/current_obs/KIDA.xml
  name: Idaho Falls/Fanning
  latitude: 43.53
  id: KIDA
  longitude: -112.07
  state: ID
- xml_url: http://weather.gov/xml/current_obs/KJER.xml
  name: Jerome County Airport
  latitude: 42.728
  id: KJER
  longitude: -114.453
  state: ID
- xml_url: http://weather.gov/xml/current_obs/KLLJ.xml
  name: Challis (amos)
  latitude: 44.523
  id: KLLJ
  longitude: -114.215
  state: ID
- xml_url: http://weather.gov/xml/current_obs/KMLD.xml
  name: Malad City
  latitude: 42.18
  id: KMLD
  longitude: -112.32
  state: ID
- xml_url: http://weather.gov/xml/current_obs/KMLP.xml
  name: Mullan Pass Vor
  latitude: 47.45
  id: KMLP
  longitude: -115.67
  state: ID
- xml_url: http://weather.gov/xml/current_obs/KMUO.xml
  name: Mountain Home AFB
  latitude: 43.05
  id: KMUO
  longitude: -115.87
  state: ID
- xml_url: http://weather.gov/xml/current_obs/KMYL.xml
  name: Mc Call
  latitude: 44.89
  id: KMYL
  longitude: -116.1
  state: ID
- xml_url: http://weather.gov/xml/current_obs/KPIH.xml
  name: Pocatello Municipal
  latitude: 42.93
  id: KPIH
  longitude: -112.6
  state: ID
- xml_url: http://weather.gov/xml/current_obs/KRXE.xml
  name: Rexburg-Madison County Airport
  latitude: 43.83
  id: KRXE
  longitude: -111.81
  state: ID
- xml_url: http://weather.gov/xml/current_obs/KSMN.xml
  name: Salmon/Lemhi (awos)
  latitude: 45.12
  id: KSMN
  longitude: -113.88
  state: ID
- xml_url: http://weather.gov/xml/current_obs/KSNT.xml
  name: Stanley Ranger Station
  latitude: 44.17
  id: KSNT
  longitude: -114.93
  state: ID
- xml_url: http://weather.gov/xml/current_obs/KSUN.xml
  name: Hailey/Friedman Mem
  latitude: 43.51
  id: KSUN
  longitude: -114.3
  state: ID
- xml_url: http://weather.gov/xml/current_obs/KSZT.xml
  name: Sandpoint Airport
  latitude: 48.3
  id: KSZT
  longitude: -116.55
  state: ID
- xml_url: http://weather.gov/xml/current_obs/KTWF.xml
  name: Twin Falls/Joslin
  latitude: 42.48
  id: KTWF
  longitude: -114.48
  state: ID
- xml_url: http://weather.gov/xml/current_obs/KU78.xml
  name: Soda Springs/Tigert
  latitude: 42.66
  id: KU78
  longitude: -111.58
  state: ID
- xml_url: http://weather.gov/xml/current_obs/KCOE.xml
  name: COEUR D'ALENE(AWOS)
  latitude: 47.78
  id: KCOE
  longitude: -116.82
  state: ID
- xml_url: http://weather.gov/xml/current_obs/KLWS.xml
  name: Lewiston (amos)
  latitude: 46.39
  id: KLWS
  longitude: -117.02
  state: ID
- xml_url: http://weather.gov/xml/current_obs/KP69.xml
  name: Lowell
  latitude: 46.15
  id: KP69
  longitude: -115.6
  state: ID
- xml_url: http://weather.gov/xml/current_obs/KS14.xml
  name: Spencer
  latitude: 44.3
  id: KS14
  longitude: -112.1
  state: ID
- xml_url: http://weather.gov/xml/current_obs/KDIJ.xml
  name: Driggs-Reed Memorial Airport
  latitude: 43.7417
  id: KDIJ
  longitude: -111.098
  state: ID
- xml_url: http://weather.gov/xml/current_obs/K1H2.xml
  name: Effingham
  latitude: 39.07
  id: K1H2
  longitude: -88.53
  state: IL
- xml_url: http://weather.gov/xml/current_obs/K3LF.xml
  name: Litchfield Municipal Airport
  latitude: 39.163
  id: K3LF
  longitude: -89.675
  state: IL
- xml_url: http://weather.gov/xml/current_obs/KAAA.xml
  name: Logan County Airport
  latitude: 40.16
  id: KAAA
  longitude: -89.33
  state: IL
- xml_url: http://weather.gov/xml/current_obs/KAJG.xml
  name: Mount Carmel Municipal Airport
  latitude: 38.607
  id: KAJG
  longitude: -87.727
  state: IL
- xml_url: http://weather.gov/xml/current_obs/KALN.xml
  name: Alton / St. Louis Regional
  latitude: 38.91
  id: KALN
  longitude: -90.05
  state: IL
- xml_url: http://weather.gov/xml/current_obs/KARR.xml
  name: Aurora Municipal Airport
  latitude: 41.77
  id: KARR
  longitude: -88.47
  state: IL
- xml_url: http://weather.gov/xml/current_obs/KBLV.xml
  name: Scott Air Force Base / Belleville
  latitude: 38.55
  id: KBLV
  longitude: -89.85
  state: IL
- xml_url: http://weather.gov/xml/current_obs/KBMI.xml
  name: Bloomington / Normal
  latitude: 40.48
  id: KBMI
  longitude: -88.93
  state: IL
- xml_url: http://weather.gov/xml/current_obs/KC09.xml
  name: Morris Muni-James R Washburn Field Airport
  latitude: 41.43
  id: KC09
  longitude: -88.42
  state: IL
- xml_url: http://weather.gov/xml/current_obs/KC75.xml
  name: Lacon
  latitude: 41.02
  id: KC75
  longitude: -89.39
  state: IL
- xml_url: http://weather.gov/xml/current_obs/KCIR.xml
  name: Cairo Regional Airport
  latitude: 37.067
  id: KCIR
  longitude: -89.217
  state: IL
- xml_url: http://weather.gov/xml/current_obs/KCMI.xml
  name: Champaign / Urbana, University of Illinois-Willard
  latitude: 40.04
  id: KCMI
  longitude: -88.28
  state: IL
- xml_url: http://weather.gov/xml/current_obs/KCPS.xml
  name: Cahokia / St. Louis, St. Louis Downtown Airport
  latitude: 38.58
  id: KCPS
  longitude: -90.15
  state: IL
- xml_url: http://weather.gov/xml/current_obs/KCUL.xml
  name: Carmi Municipal Airport
  latitude: 38.09
  id: KCUL
  longitude: -88.123
  state: IL
- xml_url: http://weather.gov/xml/current_obs/KDEC.xml
  name: Decatur Airport
  latitude: 39.84
  id: KDEC
  longitude: -88.87
  state: IL
- xml_url: http://weather.gov/xml/current_obs/KDKB.xml
  name: DeKalb Taylor Municipal Airport
  latitude: 41.93
  id: KDKB
  longitude: -88.72
  state: IL
- xml_url: http://weather.gov/xml/current_obs/KDNV.xml
  name: Danville, Vermilion County Airport
  latitude: 40.2
  id: KDNV
  longitude: -87.6
  state: IL
- xml_url: http://weather.gov/xml/current_obs/KDPA.xml
  name: Chicago / West Chicago, Dupage Airport
  latitude: 41.93
  id: KDPA
  longitude: -88.25
  state: IL
- xml_url: http://weather.gov/xml/current_obs/KENL.xml
  name: Centralia Municipal Airport
  latitude: 38.52
  id: KENL
  longitude: -89.08
  state: IL
- xml_url: http://weather.gov/xml/current_obs/KFEP.xml
  name: Albertus Airport
  latitude: 42.25
  id: KFEP
  longitude: -89.58
  state: IL
- xml_url: http://weather.gov/xml/current_obs/KFOA.xml
  name: Flora Municipal Airport
  latitude: 38.67
  id: KFOA
  longitude: -88.45
  state: IL
- xml_url: http://weather.gov/xml/current_obs/KFWC.xml
  name: Fairfield Municipal Airport
  latitude: 38.38
  id: KFWC
  longitude: -88.42
  state: IL
- xml_url: http://weather.gov/xml/current_obs/KGBG.xml
  name: Galesburg Municipal Airport
  latitude: 40.94
